stop_id,stop_name,stop_lat,stop_lon,clust,geometry
007877,Bíróság,47.519481,18.9780405,2120,POINT (18.97806 47.519544)
007879,"Római úti lakótelep, Varsa utca",47.570863,19.058543,1752,POINT (19.058543 47.570863)
007881,Váradi utca,47.543645500000004,19.030374000000002,1947,POINT (19.030125 47.543722)
007883,Perényi út,47.546281,19.0293865,1973,POINT (19.029579 47.5458)
007884,Deák Ferenc tér M,47.497643749999995,19.05453025,366,POINT (19.055158 47.497413)
007885,Dorottya utca (Vörösmarty tér M),47.4971395,19.050100999999998,369,POINT (19.049623 47.497476)
007897,Kelenföld vasútállomás M,47.46456733333333,19.020276666666668,1413,POINT (19.022964 47.464572)
007900,Maros utcai rendelőintézet,47.503795999999994,19.022413999999998,1260,POINT (19.022401 47.503724)
007913,526. sor,47.479290500000005,19.211399999999998,77,POINT (19.211332 47.479281)
007919,Pólus Center,47.552544,19.143552,815,POINT (19.143552 47.552544)
007923,Kele utca,47.431808,19.173804,872,POINT (19.173804 47.431808)
007924,Ültetvény utca,47.396841,19.175250499999997,922,POINT (19.175423 47.396895)
007927,Ferihegy vasútállomás,47.438045,19.2230465,981,POINT (19.222716 47.438423)
007930,Savoyai Jenő tér (Törley tér),47.430351,19.036572999999997,1506,POINT (19.036354 47.430333)
007949,Kocsis Sándor út,47.574343,19.013009,1683,POINT (19.013009 47.574343)
007950,Keleti pályaudvar M,47.50007766666666,19.08285616666667,494,POINT (19.082712 47.501104)
007968,Mogyoród útja,47.570602,19.128267,1808,POINT (19.128267 47.570602)
007973,Hűvösvölgy,47.5429465,18.964362166666664,2085,POINT (18.964574 47.542892)
007979,Vörösmarty utca M,47.5075734,19.0667354,416,POINT (19.066509 47.507468)
007995,Jókai Mór utca,47.410292,19.02051966666667,1642,POINT (19.020681 47.410717)
008020,Örs vezér tere M+H,47.50299893103448,19.13641627586207,726,POINT (19.136306 47.500932)
008036,Kőbányai út 31.,47.487539749999996,19.10398675,610,POINT (19.104252 47.487461)
008040,Tas vezér utca,47.47878175,19.04059675,1312,POINT (19.040827 47.478606)
008047,Lajosmizsei sorompó,47.45067433333333,19.160945666666667,1029,POINT (19.16141 47.450468)
008050,Liptó utca,47.486055,19.007051,1230,POINT (19.007031 47.4861)
008067,Szent Imre tér,47.4308324,19.070718799999998,1544,POINT (19.0703 47.430889)
008087,Fény utcai piac,47.50727043478261,19.024549000000004,1267,POINT (19.023646 47.508464)
008090,Móricz Zsigmond körtér M,47.47755663636363,19.046734727272728,1301,POINT (19.048786 47.477256)
008093,Dél-pesti autóbuszgarázs,47.4266445,19.1613985,896,POINT (19.161776 47.426707)
008094,Dél-pesti autóbuszgarázs,47.42616,19.16094,897,POINT (19.16094 47.42616)
008095,Nagykőrösi út,47.425276999999994,19.157635250000002,895,POINT (19.157029 47.425255)
008098,Szabina út,47.436839666666664,19.013760333333334,1580,POINT (19.013416 47.43645)
008106,Vihar utca,47.4345335,19.0360355,1503,POINT (19.035651 47.434282)
008109,Damjanich utca,47.4024235,18.990934000000003,1652,POINT (18.991053 47.402518)
008110,Barosstelep vasútállomás,47.399568,18.9908845,1651,POINT (18.990911 47.399613)
008111,Barackos út / Angeli utca,47.402248,18.974427,1625,POINT (18.974427 47.402248)
008112,Szakiskola utca,47.405092499999995,18.975870999999998,1624,POINT (18.975841 47.40492)
008113,Szilvafa utca,47.4051815,18.982634500000003,1650,POINT (18.982168 47.405214)
008114,Mátyás király utca,47.404348,18.991005,1653,POINT (18.990746 47.404326)
008115,Szebeni utca,47.430257499999996,19.016478499999998,1592,POINT (19.016061 47.430338)
008119,Mátra utca,47.4001605,18.998567,1667,POINT (18.997693 47.400093)
008124,Zöldike utca,47.4309715,19.012591,1604,POINT (19.012823 47.430738)
008126,Hír utca,47.432905,19.011463,1603,POINT (19.011523 47.432896)
008128,Ady Endre út,47.4356722,19.036082600000004,1504,POINT (19.036578 47.435802)
008132,Puskás Ferenc Stadion M,47.500322454545454,19.10651,591,POINT (19.107691 47.501283)
008146,Vajda Péter utca,47.481579499999995,19.1033965,451,POINT (19.103174 47.481389)
008148,Kőbányai út / Könyves Kálmán körút,47.48629,19.107771500000002,608,POINT (19.107077 47.485742)
008152,Mester utca / Könyves Kálmán körút,47.46974666666667,19.084226333333334,1384,POINT (19.083728 47.469596)
008155,Közvágóhíd H,47.467468624999995,19.075484499999998,1393,POINT (19.072756 47.468737)
008156,Új köztemető,47.47320128571429,19.17769714285714,508,POINT (19.178326 47.473586)
008168,I. utca,47.40114475,19.00342425,1664,POINT (19.002739 47.400994)
008170,Angeli utca / Nagytétényi út,47.390831999999996,18.981322000000002,1619,POINT (18.981 47.390622)
008206,Mexikói út M,47.519775200000005,19.0910806,426,POINT (19.091048 47.519261)
008209,Nagy Lajos király útja / Czobor utca,47.52232371428572,19.10199257142857,778,POINT (19.102815 47.52217)
008218,Széchenyi István tér,47.49826166666667,19.047070666666666,363,POINT (19.047022 47.499014)
008238,Széchenyi István tér,47.500639,19.04631433333333,362,POINT (19.04669 47.500543)
008239,Müpa - Nemzeti Színház H,47.471182999999996,19.07314525,1392,POINT (19.073129 47.471165)
008241,Szőnyi út,47.526625,19.09622,773,POINT (19.09622 47.526625)
008242,Teleki Blanka utca,47.523865,19.093761,777,POINT (19.093761 47.523865)
008243,Szántóföld utca,47.57256266666667,19.138931666666664,1796,POINT (19.13883 47.572244)
008245,Kolozsvár utcai piac,47.5370445,19.1149695,831,POINT (19.114916 47.536842)
008246,Rákospalotai köztemető,47.55124,19.13601,814,POINT (19.13601 47.55124)
008260,Nagybányai út,47.528422,18.9963805,1993,POINT (18.996294 47.528476)
008262,Hidegkuti Nándor Stadion,47.490682,19.109182,605,POINT (19.10891 47.49069)
008269,Delej utca,47.484577,19.096308,452,POINT (19.096209 47.484694)
008280,Infopark (Pázmány Péter sétány),47.469557,19.063637,1363,POINT (19.064333 47.469242)
008283,Óceán-árok utca,47.5901655,19.101063,1785,POINT (19.100345 47.589986)
008286,Népliget M,47.476089111111115,19.099649,616,POINT (19.099288 47.476294)
008289,Szilágyi utca,47.57062500000001,19.112229333333335,1870,POINT (19.11133 47.570877)
008336,Növény utca,47.402097999999995,19.015532,1669,POINT (19.01581 47.402071)
008341,Templom tér,47.542083500000004,19.130063,843,POINT (19.130057 47.542367)
008344,Királyhágó tér,47.4952884,19.0191084,1250,POINT (19.018729 47.495421)
008353,Észak-Pesti Kórház,47.539377,19.122388,836,POINT (19.122388 47.539377)
008379,Kőbánya alsó vasútállomás,47.48366533333334,19.127717999999998,582,POINT (19.127207 47.483885)
008399,Pestszentimre vasútállomás,47.404393999999996,19.18630225,932,POINT (19.186538 47.404251)
008402,Kert sor,47.591248,19.045371,1714,POINT (19.045358 47.591122)
008404,Csillaghegy H,47.58531714285714,19.044340714285713,1736,POINT (19.042061 47.584817)
008406,Forrásliget lakópark,47.581228,19.0376485,1685,POINT (19.037502 47.581093)
008408,Ürömhegyi lejtő,47.577653999999995,19.0321315,1687,POINT (19.032198 47.577645)
008410,Aranyhegyi lejtő,47.5725525,19.0302145,1696,POINT (19.030301 47.572593)
008412,Bécsi út / Vörösvári út,47.5485532,19.028979,1972,POINT (19.02918 47.548471)
008426,"Káposztásmegyer, Szilas-patak",47.57748899999999,19.114741000000002,1761,POINT (19.114927 47.577405)
008440,Gubacsi út / Határ út,47.44412266666666,19.096964,1209,POINT (19.096848 47.443626)
008455,Jászai Mari tér,47.512919000000004,19.048318666666663,320,POINT (19.047938 47.512811)
008458,Tisza István tér,47.51674025,19.10773875,741,POINT (19.10735 47.51723)
008459,Uzsoki Utcai Kórház,47.519732,19.103589,779,POINT (19.103742 47.519822)
008481,Soroksár felső H,47.41005725,19.11159825,1133,POINT (19.111405 47.40998)
008490,Határ út M,47.464830166666665,19.127052333333335,658,POINT (19.126164 47.464573)
008491,Jászberényi út,47.485729,19.192317000000003,87,POINT (19.192668 47.485549)
008498,Aszódi utca,47.463583,19.1008915,620,POINT (19.100991 47.463484)
008499,Közterületfenntartó Zrt.,47.468074,19.107451857142856,625,POINT (19.106659 47.467861)
008500,Ecseri út M,47.470805999999996,19.110137714285713,623,POINT (19.108771 47.470487)
008501,Ferencvárosi rendelőintézet,47.476939,19.0753205,1388,POINT (19.074856 47.476723)
008519,Tímár utca H,47.533299,19.043582,272,POINT (19.043582 47.533299)
008521,Serfőző utca,47.538309,19.046968,1940,POINT (19.046968 47.538309)
008535,Cinkotai autóbuszgarázs,47.4983365,19.237973250000003,71,POINT (19.237392 47.498185)
008544,Szépvölgyi út H,47.527834333333324,19.039735333333333,2036,POINT (19.040037 47.527615)
008546,Boráros tér H,47.479805299999995,19.0669076,461,POINT (19.067812 47.479738)
008559,Korompai utca,47.4848245,19.012664,1275,POINT (19.012485 47.48486)
008567,Gazdagréti tér,47.4732896,18.992602599999998,1343,POINT (18.99278 47.473277)
008575,Távíró utca,47.461082,19.119025,663,POINT (19.119025 47.461082)
008577,Rákoshegy vasútállomás,47.46794825,19.244328,136,POINT (19.244806 47.467934)
008587,Gyáli út,47.456382500000004,19.110684,1185,POINT (19.111009 47.456472)
008589,Gyáli út,47.4661095,19.102804,621,POINT (19.103474 47.46601)
008590,Szent Gellért tér - Műegyetem M,47.48298057142857,19.053439857142855,1367,POINT (19.053086 47.483337)
008605,Kolosy tér,47.52762357142857,19.037229,2035,POINT (19.036916 47.527543)
008644,Vízművek,47.5999255,19.093050499999997,1784,POINT (19.092791 47.599539)
008692,Felsőcsatári köz,47.4583875,19.176757000000002,1040,POINT (19.177096 47.458756)
008694,Köztelek utca,47.4870545,19.0676955,474,POINT (19.067178 47.486933)
008697,Újpest-központ M,47.560317,19.08991971428571,1890,POINT (19.090125 47.560733)
008708,Vízművek lakótelep,47.597772500000005,19.091533,1783,POINT (19.091606 47.597822)
008731,Budagyöngye,47.5162026,18.9989172,2133,POINT (18.998922 47.516074)
008736,Dániel út,47.512872,18.9948585,2132,POINT (18.994978 47.512863)
008750,Batthyány tér M+H,47.50613200000001,19.038971833333335,335,POINT (19.039323 47.505696)
008754,Pestszentimre vasútállomás (Dózsa Gy.u.),47.403500333333334,19.185912000000002,931,POINT (19.185688 47.403586)
008782,Blaha Lujza tér M,47.497048875,19.070277625,479,POINT (19.069066 47.496844)
008788,Kőérberek,47.445258499999994,18.999810500000002,1591,POINT (18.999585 47.445299)
008792,Normafa,47.502630999999994,18.9656265,2160,POINT (18.965793 47.502258)
008793,Regényes utca,47.429618000000005,19.0210505,1593,POINT (19.020658 47.429436)
008832,Szakorvosi rendelőintézet,47.443871,19.181125,961,POINT (19.181125 47.443871)
008841,Íves út,47.592830666666664,19.107217000000002,1787,POINT (19.107979 47.592824)
008844,Egressy út / Vezér utca,47.519194999999996,19.12676675,755,POINT (19.126312 47.51926)
008850,Mikszáth Kálmán utca,47.450981999999996,19.177059,1052,POINT (19.176781 47.451162)
008863,Gőzmozdony utca,47.470028,19.157173,537,POINT (19.157173 47.470028)
008893,Csepeli átjáró,47.436352,19.0927475,1160,POINT (19.092257 47.436339)
008894,Vízisport utca,47.4342605,19.091312000000002,1155,POINT (19.091263 47.433997)
008895,Teremszeg utca,47.432951,19.092221,1157,POINT (19.092221 47.432951)
008896,Pesterzsébet vasútállomás,47.4336165,19.096942,1152,POINT (19.096414 47.433417)
008898,Szakorvosi rendelő,47.44152975,19.102475750000004,1143,POINT (19.10178 47.440886)
008903,Szentmihályi út,47.54149933333334,19.151422166666666,845,POINT (19.15194 47.541348)
008904,Kétújfalu utca,47.419270499999996,19.208835,902,POINT (19.209134 47.419522)
008910,"Káposztásmegyer, Mogyoródi-patak",47.59853225,19.121429,1793,POINT (19.121429 47.598321)
008911,Homoktövis iskola,47.597010499999996,19.11658,1794,POINT (19.117132 47.597226)
008918,"Budatétény, benzinkút",47.4301,19.003628,1607,POINT (19.003628 47.4301)
008922,Gyula vezér út,47.4094355,19.0037785,1676,POINT (19.003434 47.409242)
008923,Kabai utca,47.495618500000006,19.160444,547,POINT (19.160464 47.495704)
008939,Békásmegyer H,47.597936999999995,19.05497857142857,1720,POINT (19.054259 47.598408)
008943,"Budatétény, benzinkút",47.43078475,19.0053545,1606,POINT (19.004423 47.431018)
008946,Szénás utca,47.527707,19.181101,690,POINT (19.181565 47.527548)
008947,Szlovák út,47.53155425,19.1891685,683,POINT (19.189157 47.530956)
008948,Kucorgó tér,47.46912825,19.29494975,91,POINT (19.29515 47.469303)
008952,Terv utca,47.40792866666666,19.002075,1677,POINT (19.001541 47.408)
008953,Csillag utca,47.4093895,19.1190265,1132,POINT (19.119 47.409214)
008955,Gombosszeg köz,47.4133405,19.118465,1141,POINT (19.118352 47.413107)
008957,Előd utca,47.419219,19.116973666666667,1136,POINT (19.117365 47.418567)
008958,Alsó határút,47.4163785,19.1163775,1140,POINT (19.116568 47.416534)
008959,Templom utca 6.,47.408876,19.11362,1134,POINT (19.11362 47.408876)
008960,Gyáli-patak,47.394724999999994,19.116676,1000,POINT (19.11657 47.394698)
008963,Grassalkovich út,47.390918,19.1187555,999,POINT (19.118896 47.390505)
008967,Szentlőrinci úti lakótelep,47.41690825,19.130894,1124,POINT (19.131198 47.416957)
009025,Zichy Jenő utca,47.505219,19.057720500000002,289,POINT (19.057853 47.505192)
009039,Csanády utca (Lehel tér M),47.517089444444444,19.060166888888887,313,POINT (19.058891 47.51585)
009041,Haller utca / Soroksári út,47.47509625,19.070555875,1359,POINT (19.069615 47.475402)
009047,Homoktövis utca,47.59417933333333,19.113578333333333,1786,POINT (19.113273 47.594692)
009072,AsiaCenter,47.548412,19.146959,816,POINT (19.146959 47.548412)
009137,Újmajori utca,47.471697,19.220067,155,POINT (19.220067 47.471697)
009138,Csillagmotor köz,47.471018,19.221893,156,POINT (19.221893 47.471018)
009139,Dedics Ferenc utca,47.4693245,19.226630999999998,154,POINT (19.226094 47.469097)
009146,Vágóhíd utca,47.473394000000006,19.079952666666667,1389,POINT (19.079643 47.473628)
009147,Vörösmarty utca,47.420238000000005,19.119956000000002,1137,POINT (19.120349 47.419869)
009148,Szusza Ferenc Stadion,47.5759195,19.083851000000003,1835,POINT (19.083759 47.575797)
009153,Óbudai rendelőintézet,47.545603,19.033613666666668,1950,POINT (19.033751 47.545359)
009154,Atlétikai stadion,47.5723775,19.114289499999998,1869,POINT (19.114429 47.572575)
009179,"Petőfi híd, budai hídfő",47.476743750000004,19.059165,1370,POINT (19.058883 47.47678)
009208,"Pestszentlőrinc, Szarvas csárda tér",47.4412735,19.185257999999997,967,POINT (19.18511 47.441357)
009225,Noszlopy utca,47.4719055,19.148362,640,POINT (19.148362 47.471959)
009289,Gergely utca,47.46838966666667,19.155085,536,POINT (19.154524 47.468734)
009295,Serfőző utca,47.539721833333324,19.04606275,1938,POINT (19.045373 47.539095)
009311,"BILK, bekötőút",47.3786055,19.1298075,994,POINT (19.129179 47.378957)
009312,MNB,47.3767785,19.1243425,991,POINT (19.124303 47.376882)
009314,"BILK, DF épület",47.375229,19.120911,993,POINT (19.120911 47.375229)
009337,Orbánhegyi dűlő,47.3863585,19.110354,1003,POINT (19.110228 47.386327)
009339,Szent István utca H,47.39132433333333,19.114508,1001,POINT (19.114168 47.391083)
009349,Budaörsi repülőtér,47.447103,18.986262,1572,POINT (18.98673 47.447079)
009351,Kőérberek,47.446285,18.9986645,1590,POINT (18.998545 47.446339)
009353,Tippan utca,47.447878,19.000612500000003,1589,POINT (19.000851 47.447968)
009355,Régi vám (Kánai út),47.446327499999995,19.0040215,1587,POINT (19.003968 47.446377)
009358,Millenniumtelep H,47.379680500000006,19.104592,997,POINT (19.104287 47.37962)
009365,Zsil utca,47.48289233333333,19.062718666666665,468,POINT (19.062997 47.482716)
009373,Hunyadvár utca,47.508153,19.192136,45,POINT (19.192136 47.508153)
009375,Szilas-patak,47.529696,19.186239,684,POINT (19.185461 47.529297)
009377,Jókai Mór utca (Rendőrség),47.510679,19.190328666666666,44,POINT (19.190456 47.510358)
009379,József utca,47.5322865,19.156264999999998,667,POINT (19.155893 47.53208)
009381,Rózsa utca,47.516207,19.155905,703,POINT (19.156232 47.516008)
009382,Jávorfa utca,47.526052,19.177918,687,POINT (19.177918 47.526052)
009383,János utca,47.52346266666666,19.171934333333336,679,POINT (19.172315 47.523533)
009394,Rómaifürdő H,47.575495,19.048741,1758,POINT (19.048588 47.575238)
009413,Ezredes utca,47.5102545,19.021419,2013,POINT (19.021771 47.510057)
009415,Sárfű utca,47.549984,19.1380935,821,POINT (19.138067 47.55006)
009420,Honvédkórház,47.531561,19.070886,253,POINT (19.070886 47.531561)
009421,Ezred utca,47.6064265,19.0979105,1790,POINT (19.097598 47.606004)
009429,Keserűvíztelep (Bobpálya),47.454342999999994,19.007528999999998,1397,POINT (19.007542 47.454806)
009431,Régi vám,47.4462245,19.005838,1588,POINT (19.006063 47.446818)
009445,Tatárka utca,47.433987,19.0211265,1601,POINT (19.021173 47.434041)
009446,Botond utca,47.403953,18.995789,1660,POINT (18.995789 47.403953)
009448,Görgey utca,47.406802,18.991613,1662,POINT (18.991613 47.406802)
009449,Török utca,47.411614,18.989898,1655,POINT (18.989898 47.411614)
009451,Gyűszű utca,47.417266,19.0224,1646,POINT (19.0224 47.417266)
009452,Húr utca,47.416159,19.020426,1644,POINT (19.020426 47.416159)
009453,Dévény utca,47.415224,19.022189,1645,POINT (19.022189 47.415224)
009454,Wesselényi utca,47.415917,19.026059,1511,POINT (19.026059 47.415917)
009455,Ostor utca,47.416544,19.029864,1513,POINT (19.029864 47.416544)
009456,Római utca,47.4175525,19.017954000000003,1643,POINT (19.017589 47.41793)
009458,Hűség utca,47.4208685,19.013746,1610,POINT (19.013469 47.421208)
009460,Komáromi út,47.424274,19.0109985,1612,POINT (19.010866 47.424593)
009462,Tanító utca,47.435301499999994,19.009254,1583,POINT (19.008724 47.435306)
009465,Plébánia utca,47.429708000000005,19.03227,1505,POINT (19.032323 47.429726)
009467,Galamb utca,47.432738,19.0284775,1600,POINT (19.028517 47.432765)
009469,Alkotmány utca,47.4334075,19.0259255,1599,POINT (19.025932 47.43343)
009471,Széchenyi utca,47.4183245,19.0326175,1519,POINT (19.032578 47.418185)
009472,Promontor utca,47.418055,19.027015,1512,POINT (19.027015 47.418055)
009474,Komló utca,47.421812666666675,19.035596333333334,1520,POINT (19.035137 47.421339)
009475,Méhész utca,47.438572,19.034695,1442,POINT (19.034695 47.438572)
009480,Margó Tivadar utca,47.433194,19.177120000000002,870,POINT (19.177803 47.433265)
009481,Kerékgyártó utca,47.52122625,19.1060235,780,POINT (19.105562 47.521341)
009483,Rákoscsaba vasútállomás,47.4912908,19.282016600000002,116,POINT (19.281623 47.491097)
009484,Tura utca,47.489191,19.2769765,115,POINT (19.276864 47.4892)
009485,Rákoscsaba-Újtelep vasútállomás,47.488127500000004,19.2734425,178,POINT (19.27329 47.488137)
009486,II. utca,47.486369,19.265893,177,POINT (19.265893 47.486369)
009487,Rákosliget vasútállomás,47.4866015,19.258730749999998,175,POINT (19.259071 47.486311)
009491,Füstifecske utca,47.478843499999996,19.237045000000002,147,POINT (19.236966 47.478911)
009493,Uszoda,47.4794605,19.2334715,148,POINT (19.232961 47.479619)
009494,"Újlak utca, lakótelep",47.482203999999996,19.2335345,146,POINT (19.233674 47.482307)
009495,Rákospatak utca,47.531200999999996,19.1008655,760,POINT (19.10066 47.531435)
009498,Csertő utca,47.511056,19.1469955,714,POINT (19.146099 47.511107)
009500,Körvasút sor,47.513666,19.15103,700,POINT (19.15103 47.513666)
009501,Körvasút sor,47.514609,19.152837,701,POINT (19.152837 47.514609)
009503,Kovácsi Kálmán tér,47.573301,19.121160000000003,1803,POINT (19.12112 47.573171)
009508,Orló utca,47.5181865,19.0074505,2021,POINT (19.007497 47.518254)
009510,Pasaréti út,47.5163685,19.004116250000003,2123,POINT (19.004033 47.516184)
009512,Endrődi Sándor utca,47.521107,19.012082,2019,POINT (19.011996 47.521143)
009513,Bimbó út,47.5194925,19.009913750000003,2020,POINT (19.008996 47.519325)
009515,Rákospalota-Újpest vasútállomás,47.566162,19.11172025,1861,POINT (19.111644 47.566389)
009520,Csörsz utca,47.490368000000004,19.0241304,1271,POINT (19.023466 47.49017)
009522,Sirály utca,47.490002249999996,19.01863225,1272,POINT (19.018489 47.490555)
009524,Albertfalva vasútállomás,47.4418675,19.032149,1446,POINT (19.032202 47.441881)
009534,XIII. utca / Dózsa György út,47.411539000000005,18.9934995,1657,POINT (18.993728 47.411121)
009537,Március 15. tér,47.491244,19.051591000000002,373,POINT (19.051322 47.491531)
009538,Irány utca,47.540469,19.109767,803,POINT (19.109767 47.540469)
009539,Boglár utca,47.594755,19.060781,1717,POINT (19.060994 47.594701)
009540,Szilágyi Erzsébet fasor,47.5150905,19.002136,2124,POINT (19.002149 47.515203)
009543,513. utca,47.484111,19.2304295,153,POINT (19.230112 47.484291)
009544,Robogó utca,47.486892,19.2705645,179,POINT (19.270088 47.487235)
009546,Memento Park,47.4257955,19.001372500000002,1609,POINT (19.001313 47.425665)
009549,Madárdomb köz,47.478076,19.241180999999997,159,POINT (19.241221 47.478138)
009554,"Óbuda, Bogdáni út",47.550131500000006,19.041601,1959,POINT (19.041176 47.550028)
009557,Vécsey Károly utca,47.5719335,19.095934,1859,POINT (19.096021 47.571892)
009558,Szent János Kórház,47.5097878,19.0097964,2009,POINT (19.009919 47.509962)
009563,Mészkő utca,47.579315,19.034454999999998,1688,POINT (19.034843 47.579237)
009566,"Soroksár, Auchan áruház",47.417204,19.158231,885,POINT (19.158231 47.417204)
009568,Sósmocsár út,47.41550075,19.133677749999997,1125,POINT (19.134154 47.414781)
009569,Thököly út,47.4422925,19.180523,959,POINT (19.18098 47.441995)
009570,Újbuda-központ M,47.474215666666666,19.047132444444443,1297,POINT (19.04705 47.474163)
009572,Bagaria utca,47.59027450000001,19.083402,1849,POINT (19.08313 47.590242)
009574,Ungvári utca,47.587388000000004,19.082141,1848,POINT (19.082244 47.587511)
009576,Rév utca,47.58481,19.081824,1853,POINT (19.081824 47.58481)
009577,Savoya Park,47.436620500000004,19.0394745,1501,POINT (19.03968 47.436585)
009587,Gogol utca,47.5202895,19.057285,311,POINT (19.05698 47.520447)
009588,Kuruclesi út,47.518184399999996,18.9845458,2116,POINT (18.985232 47.518001)
009592,Kőbánya-Kispest P+R,47.46290335714286,19.148228571428575,1066,POINT (19.145941 47.46421)
009625,Szigetcsép utca,47.46419766666667,19.312611333333333,104,POINT (19.312714 47.464407)
009631,Gergely utca 80.,47.473816,19.144420666666665,647,POINT (19.144346 47.474086)
009652,Széchenyi út,47.54563975,19.11243625,808,POINT (19.112403 47.545721)
009659,Mélyfúró utca,47.57759,19.129699,1799,POINT (19.129699 47.57759)
009675,Clark Ádám tér,47.497512,19.0415675,358,POINT (19.041541 47.497665)
009684,"Városközpont, Posta",47.479615249999995,19.2563645,188,POINT (19.256176 47.478941)
009685,Akácvirág utca,47.4777415,19.2555875,186,POINT (19.255241 47.477351)
009691,Flórián tér,47.539901,19.042054,1942,POINT (19.042054 47.539901)
009698,Galántai utca,47.498376666666665,19.01582,1244,POINT (19.015183 47.49837)
009704,Jászivány utca,47.495635,19.274888,112,POINT (19.275378 47.495409)
009705,Diadal utca (Tura utca),47.49439,19.272268,114,POINT (19.272268 47.49439)
009706,XVII. utca,47.49206050000001,19.26022525,171,POINT (19.259995 47.491598)
009707,Aranykút utca,47.4938165,19.278033,111,POINT (19.278001 47.493794)
009715,Zodony utca,47.430372,19.099913,1153,POINT (19.099913 47.430372)
009717,Zamárdi utca,47.434221,19.093288,1156,POINT (19.093288 47.434221)
009728,Zsigmond utca,47.464015,19.318022499999998,102,POINT (19.318341 47.464014)
011313,Szent László utca,47.4056025,18.9991845,1659,POINT (18.999264 47.405823)
011320,Búza utca,47.553437,19.040325,1965,POINT (19.040325 47.553437)
011321,Búza utca,47.55189,19.039647,1961,POINT (19.039647 47.55189)
011495,Kék Golyó utca,47.497713399999995,19.0206808,1249,POINT (19.019895 47.497895)
011715,509. utca,47.4848865,19.225621,151,POINT (19.225442 47.484963)
011725,"Rákoskeresztúr, városközpont",47.4798785,19.255046,187,POINT (19.255331 47.479815)
011762,Újpest-városkapu M,47.559794,19.08108275,1874,POINT (19.078791 47.559059)
011773,Keresztúri út,47.484645,19.22775,152,POINT (19.22775 47.484645)
016532,Pillangó utca M,47.50138666666667,19.119913666666665,600,POINT (19.120154 47.501627)
016725,Rózsaliget,47.466582,19.158453,530,POINT (19.158453 47.466582)
019313,Rákoskert vasútállomás,47.457296,19.295147,101,POINT (19.295147 47.457296)
019314,Rákoskert sugárút,47.45958533333334,19.299839000000002,100,POINT (19.299202 47.459518)
022005,Tölgy utca,47.416670499999995,19.206011,903,POINT (19.205427 47.41637)
040525,Hentes utca,47.462438000000006,19.0844905,1376,POINT (19.08457 47.462276)
040608,Zsivora park,47.509134,19.148798,736,POINT (19.148798 47.509134)
040609,Szent Imre tér H,47.43124,19.067624000000002,1542,POINT (19.067901 47.43178)
040612,Bányató utca,47.466331,19.165078,532,POINT (19.165078 47.466331)
041071,Nagyvárad tér M,47.478823818181816,19.089983545454544,447,POINT (19.088352 47.479255)
041092,Csepeli Kórház,47.424622,19.058674,1532,POINT (19.058674 47.424622)
041093,Duna utca,47.428215,19.059125,1535,POINT (19.059125 47.428215)
041094,Színesfém utca,47.430535,19.0646,1541,POINT (19.0646 47.430535)
042934,"Soroksár, BILK",47.378287,19.121299,992,POINT (19.121299 47.378287)
043192,Kisvárda utca,47.471455500000005,19.283022000000003,196,POINT (19.282412 47.471587)
043341,György utca,47.53071375,19.1717715,674,POINT (19.171561 47.53094)
043342,Régi Fóti út,47.55902425,19.1216005,1815,POINT (19.122464 47.559188)
043548,Csaba vezér tér,47.486807750000004,19.286614999999998,123,POINT (19.286582 47.487256)
043554,Enying utca,47.475282500000006,19.29797,92,POINT (19.297911 47.475377)
043555,Sport tér,47.476915500000004,19.2959015,93,POINT (19.295809 47.477046)
043556,Rés utca,47.4801795,19.2918435,128,POINT (19.29187 47.480202)
043571,Dukát utca,47.408304,18.991015,1663,POINT (18.991015 47.408304)
044076,Déli utca,47.423173,19.061198,1533,POINT (19.061198 47.423173)
044127,Száva kocsiszín,47.46642,19.123095,659,POINT (19.123095 47.46642)
044388,"Soroksár, Auchan áruház",47.419788,19.155599,886,POINT (19.155599 47.419788)
044557,"Újpest, Árpád út hajóállomás",47.562452,19.078381,1877,POINT (19.078314 47.562796)
044637,Görögkatolikus templom,47.4235755,19.0780165,1550,POINT (19.078036 47.423117)
045755,Maros utca,47.418292,19.138131,1131,POINT (19.138131 47.418292)
048471,Pasaréti tér,47.523542666666664,18.993347333333332,2004,POINT (18.994082 47.523609)
048505,Szent István Bazilika,47.5002296,19.055308399999998,292,POINT (19.054694 47.500687)
048519,"Rákospalota, Kossuth utca",47.568632,19.125961500000003,1819,POINT (19.125605 47.568509)
049174,"Soroksár, Kertvárosi körút",47.413026,19.136152,1127,POINT (19.136152 47.413026)
049177,Kárpát utca,47.527408,19.059105,257,POINT (19.059105 47.527408)
049178,Révész utca,47.52685,19.061482,258,POINT (19.061482 47.52685)
049180,Dagály fürdő,47.539491,19.062036499999998,246,POINT (19.061698 47.5391)
049182,Úszódaru utca,47.54597,19.0689125,215,POINT (19.069019 47.546042)
049892,Május 9. park,47.550374000000005,19.051092,1956,POINT (19.050992 47.550437)
049893,Sporttelep,47.547694,19.054679,1953,POINT (19.05442 47.547649)
049894,Óbudai-sziget hajóállomás,47.5504145,19.0567055,1952,POINT (19.056679 47.550284)
049895,Óbudai-sziget,47.554453,19.057889,1954,POINT (19.057889 47.554453)
049900,Kaszásdűlő H,47.556505,19.045465749999998,1966,POINT (19.044907 47.555582)
049903,Mansfeld Péter park,47.517075,19.033226,333,POINT (19.033226 47.517075)
050184,Lőrinci piac,47.44313,19.184332,968,POINT (19.184332 47.44313)
050279,Lomnici utca,47.4364575,19.0198205,1602,POINT (19.019517 47.436482)
056123,Borsmenta utca,47.572507,19.010551,1680,POINT (19.010551 47.572507)
056124,Citronella utca,47.571696,19.006817,1681,POINT (19.006817 47.571696)
056165,Öregbükk utca [3],47.580993,19.030124999999998,1686,POINT (19.030165 47.58102)
056168,Cserszömörce utca [4],47.58253,19.025976999999997,1695,POINT (19.026017 47.582575)
056170,Muzsla utca [7],47.5811225,19.0242435,1694,POINT (19.024197 47.581136)
056172,Óarany utca [8],47.579350500000004,19.0234865,1691,POINT (19.02344 47.579364)
056173,Mácsonya utca [5],47.58407533333334,19.022916999999996,1693,POINT (19.023265 47.583942)
056189,Ipacsfa utca,47.42984966666668,19.168894666666667,893,POINT (19.168656 47.429484)
061136,Rákosszeg park,47.534267,19.103451,765,POINT (19.103451 47.534267)
061223,Neszmélyi út,47.460464,19.014477499999998,1420,POINT (19.013867 47.460801)
061224,Péterhegyi út / Neszmélyi út,47.458428,19.019081,1405,POINT (19.018802 47.45859)
061225,Hajtány sor,47.45565233333334,19.02407666666667,1408,POINT (19.024398 47.455342)
061226,Péterhegyi út (Menyecske utca),47.461239000000006,19.01892,1417,POINT (19.018933 47.461432)
061231,Pajkos utca,47.457004999999995,19.0298165,1427,POINT (19.030526 47.456866)
061233,Antalháza,47.436437999999995,19.0070695,1582,POINT (19.007202 47.436488)
061236,Bíbic utca,47.41217925,19.0058775,1675,POINT (19.005088 47.412085)
061238,Nyéki Imre Uszoda,47.451014,19.037025,1456,POINT (19.036666 47.450954)
061271,Igmándi utca,47.456966,19.0200235,1406,POINT (19.019994 47.457248)
061272,Bolygó utca,47.45093800000001,19.016310666666666,1402,POINT (19.016244 47.451139)
061368,Munkás utca,47.500053,19.0791545,495,POINT (19.079088 47.499918)
062511,Than Károly utca,47.460893999999996,19.025233,1425,POINT (19.025127 47.460867)
062512,Borszéki utca,47.458465,19.023623,1426,POINT (19.023497 47.45842)
062515,Török utca,47.412811000000005,18.989160499999997,1654,POINT (18.989465 47.412771)
062517,Rózsák tere,47.501817,19.075598,404,POINT (19.075598 47.501817)
062519,Gazdagréti út,47.462534000000005,19.005312,1340,POINT (19.005126 47.462741)
062521,Corvin-negyed M,47.48584675,19.06993775,470,POINT (19.06885 47.486357)
062608,Magyar tudósok körútja,47.471828,19.063764,1365,POINT (19.063671 47.471473)
062620,Egyetemváros - A38 hajóállomás,47.473510000000005,19.0635655,1364,POINT (19.063539 47.47329)
062756,Dagály fürdő,47.5377735,19.0626075,245,POINT (19.062787 47.537697)
062757,Karikás Frigyes utca,47.5369635,19.066585,243,POINT (19.067116 47.536815)
062759,Kálvin tér M,47.489434,19.061986428571426,464,POINT (19.064087 47.48858)
062942,Péterfy Sándor utca,47.501636,19.077828,405,POINT (19.077828 47.501636)
063399,Hulladékhasznosító Mű,47.583948500000005,19.130879,1770,POINT (19.131198 47.584164)
064208,Szépvölgyi köz,47.541088,19.001774,1975,POINT (19.00194 47.541088)
064210,Fenyőgyöngye,47.540343,19.0058925,1976,POINT (19.005647 47.54037)
064212,Selyemakác utca,47.543091000000004,18.99634,1977,POINT (18.996373 47.543118)
064215,Szépvölgyi dűlő,47.545841,18.992119,1978,POINT (18.992119 47.545841)
064377,Ürömhegyi út / Jutas utca [11],47.582618,19.015383,1690,POINT (19.015383 47.582618)
066451,Infopark,47.4691215,19.0601085,1358,POINT (19.059717 47.469171)
066453,Budafoki út / Dombóvári út,47.46973966666667,19.05378333333333,1356,POINT (19.053655 47.469808)
066455,Hauszmann Alajos utca / Szerémi út,47.4667745,19.049663,1354,POINT (19.04957 47.466536)
066457,Hengermalom út / Szerémi út,47.4623085,19.0484225,1433,POINT (19.048336 47.462066)
066459,Etele út / Fehérvári út,47.462579600000005,19.0427086,1438,POINT (19.042594 47.462389)
066679,Pallós utca,47.4870475,19.2916765,126,POINT (19.291849 47.487056)
066681,Jókai Mór Általános Iskola,47.487936000000005,19.294427,127,POINT (19.294719 47.487985)
066683,Csabamező utca / Göcsej utca,47.4862865,19.298128,121,POINT (19.298294 47.486349)
066685,Ecsedháza köz,47.4879855,19.300783,120,POINT (19.300796 47.487963)
066687,Ede utca,47.49044775,19.302937749999998,118,POINT (19.303088 47.490027)
066700,Szárazhegy köz,47.473213,19.300607,94,POINT (19.300607 47.473213)
066712,Szabadság sugárút / Péceli út,47.482786250000004,19.273715250000002,202,POINT (19.273347 47.482938)
066714,Nyitány utca,47.4809045,19.275893,201,POINT (19.275992 47.480756)
066716,Öntöző utca,47.478818000000004,19.2782055,199,POINT (19.278238 47.478737)
066718,Pestvidék utca,47.4766865,19.280591,193,POINT (19.280644 47.476592)
066720,Derkovits tér,47.4747325,19.283720000000002,194,POINT (19.283024 47.474869)
066828,Göncz Árpád városközpont M,47.53307863636364,19.06694636363636,249,POINT (19.065866 47.532812)
066856,Pagony utca,47.495169250000004,19.003619750000002,1219,POINT (19.00283 47.495101)
066969,Zimonyi utca,47.471748,19.29995,95,POINT (19.29995 47.471748)
069089,"Margit híd, budai hídfő H",47.51509909090908,19.038169545454544,328,POINT (19.037569 47.515149)
069092,Bem József tér,47.511967999999996,19.039357666666664,339,POINT (19.039455 47.512082)
069403,Jahn Ferenc Kórház,47.4233735,19.1319235,1110,POINT (19.132016 47.423225)
071262,BudaPart,47.468505,19.058444,1357,POINT (19.058444 47.468505)
071659,Nyugati pályaudvar M,47.5105205,19.056321375,304,POINT (19.05492 47.509726)
072934,Rudas Gyógyfürdő,47.4898458,19.047113,375,POINT (19.047195 47.49011)
073152,Maros utca,47.505748000000004,19.02218933333333,1259,POINT (19.021637 47.505533)
075220,Óbudai autóbuszgarázs,47.568005,19.026616666666666,1911,POINT (19.027538 47.567996)
075654,Köves út / Szentlőrinci út,47.416161,19.1432295,1129,POINT (19.143215 47.416057)
075744,Sasadi út,47.4653665,19.015648499999998,1411,POINT (19.015814 47.465452)
076394,Aranyvölgy vasútállomás,47.574062999999995,19.017066999999997,1698,POINT (19.016474 47.574337)
076396,Óbuda vasútállomás (Aranyhegyi út),47.570597,19.0280845,1697,POINT (19.028424 47.570439)
076398,Aranyvölgy utca 14.,47.5719775,19.022142000000002,1700,POINT (19.022431 47.571859)
081950,Városház tér,47.426831199999995,19.039233799999998,1509,POINT (19.04004 47.426313)
081954,Kacsa utca,47.510917,19.0387385,340,POINT (19.039256 47.510526)
082617,Sasadi út,47.466939,19.016273,1412,POINT (19.016251 47.466648)
082623,Rózsakert utca / Minta utca,47.403389,19.010191000000003,1668,POINT (19.009361 47.403236)
083329,Bartók Béla út 208.,47.417283999999995,18.9855315,1574,POINT (18.985339 47.417572)
083331,Savoyai Jenő tér (Plébánia utca),47.428786,19.035467,1508,POINT (19.035467 47.428786)
085772,"Pesterzsébet, Pacsirtatelep",47.423711499999996,19.1238795,1112,POINT (19.124409 47.423158)
086857,Albert Flórián út,47.47278825,19.0955245,613,POINT (19.095031 47.473524)
086874,Vörösmarty Mihály utca,47.43961,19.16422,879,POINT (19.164256 47.43954)
086875,Kondor Béla sétány,47.438947999999996,19.166933,880,POINT (19.167224 47.438745)
086876,Fiatalság utca,47.437593666666665,19.170549333333337,882,POINT (19.171052 47.437131)
087373,"Soroksár, IKEA áruház",47.412767,19.160899,888,POINT (19.160899 47.412767)
090482,Ötvenhatosok tere,47.507484500000004,19.0867315,398,POINT (19.087004 47.507822)
090915,Andor utca / Tétényi út,47.457018,19.033547,1431,POINT (19.033547 47.457018)
091120,Szikratávíró utca,47.44726,19.068739,1524,POINT (19.068739 47.44726)
091338,Benczúr utca,47.512809000000004,19.078917,432,POINT (19.079601 47.512406)
091816,Angyalföld vasútállomás,47.550112999999996,19.091124999999998,211,POINT (19.091315 47.550363)
096830,Jogar utca,47.435114,19.013117,1581,POINT (19.013117 47.435114)
099342,Kossuth Lajos tér M,47.50594928571429,19.048490571428573,278,POINT (19.049094 47.506185)
099629,Bikás park M,47.4638605,19.033141166666667,1424,POINT (19.032434 47.463737)
099631,Bártfai utca,47.46415325,19.029244,1421,POINT (19.028906 47.464205)
100836,Iglice utca / Jutas utca [9],47.577718,19.022364,1692,POINT (19.022364 47.577718)
100837,Kőpor köz / Jutas utca [10],47.580694,19.0186605,1689,POINT (19.018707 47.58073)
102283,Wein János út,47.456979000000004,19.071033,1379,POINT (19.071027 47.456524)
102602,Orczy tér,47.489668599999995,19.090213600000002,445,POINT (19.089821 47.489401)
103897,Liget sor,47.488186,19.244454,168,POINT (19.244454 47.488186)
106324,Szlacsányi Ferenc utca,47.574479499999995,19.126127,1805,POINT (19.126124 47.57443)
109565,Pincér utca,47.44194825,19.141286,1096,POINT (19.14162 47.442174)
109566,Áchim András utca,47.444355,19.144598000000002,1074,POINT (19.145328 47.444667)
109702,Liszt Ferenc utca,47.487343499999994,19.249485999999997,166,POINT (19.249543 47.487379)
CS050182,Duna utca,47.4332455,19.220619499999998,983,POINT (19.220657 47.433466)
CS050183,"Pestszentlőrinc, Béke tér",47.429229,19.2184876,984,POINT (19.218271 47.429664)
CS056230,Rákóczi tér,47.492652,19.071340333333335,496,POINT (19.071817 47.492722)
CS056232,II. János Pál pápa tér,47.4953,19.077244,500,POINT (19.077244 47.4953)
CSF00094,Déli pályaudvar,47.50055542857143,19.02438257142857,1242,POINT (19.024802 47.500375)
CSF00097,Ág utca,47.49556,19.0294455,345,POINT (19.029466 47.495669)
CSF00483,Aquincum,47.567149,19.0491945,1746,POINT (19.048727 47.567254)
CSF00579,Filatorigát,47.551903,19.046243,1955,POINT (19.046243 47.551903)
CSF00632,Tímár utca,47.533963,19.044643,273,POINT (19.044643 47.533963)
CSF01019,Astoria,47.494245,19.060294571428575,485,POINT (19.060024 47.494364)
CSF01096,Kodály körönd,47.50954933333333,19.06979,415,POINT (19.069341 47.509234)
CSF01101,Bajza utca,47.51126966666667,19.072385999999998,414,POINT (19.072495 47.51132)
CSF01108,Károly körút (Astoria M),47.495524,19.060167,484,POINT (19.060167 47.495524)
CSF01415,Kén utca,47.4547716,19.0871434,1216,POINT (19.086556 47.454906)
CSF01820,Rákosfalva,47.504904333333336,19.151267333333337,706,POINT (19.151378 47.505066)
CSF02307,Kiss János altábornagy utca,47.492264,19.016654,1273,POINT (19.016658 47.49248)
CSF02680,Dózsa György út,47.524472,19.063179333333334,259,POINT (19.063348 47.524609)
CSF02684,Gyöngyösi utca,47.549113,19.073723333333334,214,POINT (19.073233 47.548691)
CSF03293,Cinkota alsó,47.526364,19.220986,26,POINT (19.220986 47.526364)
CSF03409,Árpádföld,47.532978,19.212553,6,POINT (19.212553 47.532978)
CSF03411,Szabadságtelep,47.537404,19.206185,4,POINT (19.206185 47.537404)
CSF03414,Cinkota,47.519701166666664,19.218113166666665,17,POINT (19.217421 47.519436)
CSF03416,Mátyásföld alsó,47.51565299999999,19.206805666666668,37,POINT (19.207455 47.515986)
CSF03417,"Mátyásföld, Imre utca",47.513579666666665,19.200084,38,POINT (19.199582 47.513545)
CSF03419,"Mátyásföld, repülőtér",47.51165833333334,19.193817,43,POINT (19.194054 47.511857)
CSF03421,Ilonatelep,47.526627,19.229402,28,POINT (19.229402 47.526627)
CSF03423,Nagyicce,47.50680966666667,19.167144666666665,710,POINT (19.16769 47.507016)
CSF03425,Sashalom,47.508896400000005,19.1793858,52,POINT (19.178647 47.508952)
CSF03884,Bajcsy-Zsilinszky út,47.4330565,19.20687625,979,POINT (19.206499 47.433169)
CSF04052,Torontál utca,47.42308366666666,19.105113333333335,1104,POINT (19.105208 47.423191)
CSF04150,Pesterzsébet felső,47.43841366666667,19.093949666666663,1161,POINT (19.093611 47.438159)
CSF04183,Karácsony Sándor utca,47.426775,19.06706275,1536,POINT (19.067283 47.426802)
CSF04272,Csepel,47.42151966666666,19.065762333333335,1551,POINT (19.065786 47.421163)
CSF04369,Szabadkikötő,47.444638,19.071788666666667,1523,POINT (19.071612 47.444476)
CSF04540,"Soroksár, Hősök tere",47.39962439999999,19.1154022,1009,POINT (19.11478 47.399309)
CSL008159,Forgách utca,47.538575,19.069944,241,POINT (19.069597 47.539383)
CSLM1HTV,Hősök tere,47.5154934,19.075449400000004,434,POINT (19.076844 47.514255)
CSLM1OKV,Oktogon,47.505111799999995,19.062581,283,POINT (19.063168 47.505083)
CSLM1OPV,Opera,47.502915599999994,19.0599682,291,POINT (19.058873 47.502244)
CSLM1SFV,Széchenyi fürdő,47.517498,19.08098,430,POINT (19.08098 47.517498)
CSLM4BP1,Bikás park,47.465005,19.033383,1423,POINT (19.033383 47.465005)
CSLM4FT1,Fővám tér,47.486401,19.05732,462,POINT (19.05732 47.486401)
CSLM4KFD,Kelenföld vasútállomás,47.464299,19.019717,1416,POINT (19.019717 47.464299)
F00001,Mihály utca,47.486079,19.034561,1286,POINT (19.034561 47.486079)
F00002,Zsolt utca,47.490508500000004,19.030440499999997,1282,POINT (19.030486 47.490477)
F00004,Mészáros utca,47.4884395,19.0312985,1283,POINT (19.031033 47.488273)
F00006,Sánc utca,47.489658999999996,19.035813,1284,POINT (19.036208 47.490037)
F00010,Szirtes út,47.4879505,19.036772,1285,POINT (19.03646 47.487663)
F00012,Búsuló Juhász (Citadella),47.485383,19.0400825,1306,POINT (19.039551 47.485594)
F00013,Királyhágó utca,47.49473633333333,19.023571999999998,1254,POINT (19.023055 47.494928)
F00016,Királyhágó utca,47.495750333333326,19.02337233333333,1253,POINT (19.023015 47.495566)
F00019,Nagyenyed utca,47.498182,19.023934500000003,1248,POINT (19.023858 47.498029)
F00028,Körmöci utca,47.504255,19.0249885,1261,POINT (19.024988 47.504372)
F00030,Mátray utca,47.5059155,19.028292999999998,1262,POINT (19.028598 47.505965)
F00032,Széna tér,47.5078805,19.0287225,1268,POINT (19.029261 47.507979)
F00034,Fazekas utca,47.50800999999999,19.03398266666667,336,POINT (19.034372 47.508268)
F00045,Donáti utca,47.501307,19.036072,355,POINT (19.036072 47.501307)
F00047,Clark Ádám tér,47.498222,19.0399285,359,POINT (19.039816 47.498312)
F00051,Halász utca,47.502022,19.0399215,352,POINT (19.039815 47.50226)
F00069,Bécsi kapu tér,47.504487000000005,19.030103,1263,POINT (19.030683 47.504553)
F00071,Szentháromság tér,47.501315,19.033803,354,POINT (19.03371 47.501324)
F00073,Dísz tér,47.4991615,19.036053000000003,353,POINT (19.035993 47.499373)
F00076,"Palota út, gyorslift",47.494783000000005,19.038064333333335,357,POINT (19.038529 47.495182)
F00079,Dózsa György tér,47.493776,19.03806033333333,356,POINT (19.037494 47.49386)
F00082,Alagút utca,47.497853,19.032981,351,POINT (19.032981 47.497853)
F00083,Krisztina tér,47.49669566666666,19.033556,349,POINT (19.033406 47.496899)
F00085,Krisztina tér,47.4967685,19.0317925,350,POINT (19.032117 47.496881)
F00088,Mikó utca,47.499246,19.03083,348,POINT (19.03083 47.499246)
F00089,Mikó utca,47.498369499999995,19.028872,347,POINT (19.028997 47.498365)
F00091,Korlát utca,47.501818,19.027418500000003,1241,POINT (19.027405 47.501917)
F00095,Győri út,47.4952295,19.025541,1252,POINT (19.025269 47.495252)
F00099,Róka utca,47.494209,19.028879,346,POINT (19.028879 47.494209)
F00102,Szarvas tér,47.492492,19.042355,379,POINT (19.042355 47.492492)
F00103,Döbrentei tér,47.49148866666667,19.043563333333335,378,POINT (19.043705 47.491486)
F00106,Várkert Bazár,47.493361,19.044242,377,POINT (19.044169 47.493536)
F00110,Döbrentei tér,47.490074,19.044767,376,POINT (19.044767 47.490074)
F00120,Nyereg út,47.537436,19.013817,1979,POINT (19.014083 47.537279)
F00122,Pál-völgyi cseppkőbarlang,47.533020500000006,19.016629000000002,1982,POINT (19.016503 47.53316)
F00124,Csalit utca,47.5294095,19.016764000000002,1980,POINT (19.016412 47.529481)
F00126,Virág Benedek utca,47.5307025,19.026743,2055,POINT (19.027062 47.530635)
F00128,Folyondár utca,47.5293405,19.030276,2049,POINT (19.030077 47.529466)
F00130,Ürömi utca,47.528091,19.033330499999998,2051,POINT (19.033304 47.528172)
F00141,Margitsziget / Margit híd,47.514578,19.043424,319,POINT (19.042521 47.514717)
F00143,Margitsziget / Margit híd,47.515882500000004,19.043869,318,POINT (19.043995 47.515986)
F00147,Labanc út,47.518979,18.9813075,2121,POINT (18.981633 47.518988)
F00149,Dénes utca,47.521628500000006,18.9682255,2099,POINT (18.968511 47.521633)
F00151,Baba utca,47.5242325,19.0130955,2017,POINT (19.013255 47.524228)
F00153,Garas utca,47.5114145,19.0195195,2012,POINT (19.019194 47.511549)
F00155,Városmajor,47.509525,19.0133412,2007,POINT (19.014008 47.509568)
F00159,Szent János Kórház,47.510357,19.008366,2010,POINT (19.008366 47.510357)
F00160,Nagyajtai utca,47.513579500000006,19.002811,2125,POINT (19.003093 47.513548)
F00168,Szépilona,47.517592,18.99519,2002,POINT (18.99511 47.517664)
F00169,Szépilona,47.517494,18.992955,2003,POINT (18.992955 47.517494)
F00173,Vízművek,47.520103,18.973346499999998,2098,POINT (18.973333 47.52017)
F00175,Bölcsőde,47.523643,18.961789500000002,2090,POINT (18.962055 47.523625)
F00177,Irén utca,47.524530999999996,18.958740499999998,2089,POINT (18.958747 47.524594)
F00179,"Szépjuhászné, Gyermekvasút",47.5271855,18.954055,2092,POINT (18.954068 47.527298)
F00181,Laktanya,47.526726,18.948345500000002,2091,POINT (18.948279 47.526789)
F00183,Országos Korányi Intézet,47.522551500000006,18.941363000000003,2088,POINT (18.941568 47.522736)
F00193,Horvát utca,47.5106785,19.0345105,341,POINT (19.03457 47.511119)
F00195,Mechwart liget,47.511176,19.032145,342,POINT (19.032247 47.511353)
F00198,Mechwart liget,47.510778,19.031462,343,POINT (19.031462 47.510778)
F00201,Füge utca,47.5139375,19.0270685,2028,POINT (19.027387 47.513933)
F00203,Rét utca,47.514652,19.0240745,2026,POINT (19.024294 47.514589)
F00205,Ady Endre utca,47.516721000000004,19.0242395,2025,POINT (19.024293 47.516802)
F00207,Tapolcsányi utca,47.517436000000004,19.021025,2031,POINT (19.021143 47.517504)
F00209,Eszter utca,47.5200975,19.0218215,2032,POINT (19.021914 47.520111)
F00211,Vend utca,47.5213835,19.020772,2033,POINT (19.02048 47.521685)
F00213,Pusztaszeri körönd,47.522952000000004,19.0175145,2018,POINT (19.017398 47.523213)
F00217,Vend utca,47.5235235,19.020485,1989,POINT (19.020359 47.523591)
F00219,Pusztaszeri út,47.5242035,19.023027499999998,1990,POINT (19.023001 47.524347)
F00221,Vérhalom tér,47.520741,19.0249545,2030,POINT (19.02514 47.520903)
F00223,Vérhalom utca,47.5197125,19.0287325,2029,POINT (19.028845 47.519816)
F00225,Sarolta utca,47.521800999999996,19.0318365,2042,POINT (19.031803 47.522453)
F00227,Vérhalom utca,47.519063,19.033424,2043,POINT (19.033424 47.519063)
F00228,Szemlőhegy utca,47.516833500000004,19.027864,2027,POINT (19.027798 47.516919)
F00230,Zivatar utca,47.515661,19.031442,332,POINT (19.031714 47.515607)
F00232,Margit körút,47.514213,19.03358,331,POINT (19.033945 47.513817)
F00239,Szent Lukács Gyógyfürdő,47.51697,19.036513499999998,329,POINT (19.03652 47.517118)
F00241,Komjádi Béla utca,47.520193,19.037153666666665,2040,POINT (19.036825 47.520626)
F00243,Zsigmond tér,47.52431225,19.0372815,2034,POINT (19.03693 47.524251)
F00247,Császár-Komjádi uszoda,47.521409,19.038272,2041,POINT (19.038272 47.521409)
F00249,Felhévízi utca,47.526786,19.030808,2052,POINT (19.030224 47.526579)
F00251,Pusztaszeri út 25.,47.527948249999994,19.027829500000003,2050,POINT (19.02847 47.527784)
F00255,Szemlő-hegyi-barlang,47.5287505,19.024293999999998,1988,POINT (19.02442 47.528791)
F00257,Zöldmáli lejtő,47.528556,19.021625,1987,POINT (19.021645 47.52861)
F00259,Zöldkert út,47.529461999999995,19.011100499999998,1983,POINT (19.011127 47.529543)
F00261,Pitypang utca,47.529920000000004,19.0088625,1984,POINT (19.008683 47.530037)
F00264,Verecke lépcső,47.529054333333335,19.003486666666664,1991,POINT (19.004288 47.529019)
F00267,Tömörkény utca,47.527311,19.007675499999998,1985,POINT (19.007649 47.527437)
F00269,Móricz Zsigmond Gimnázium,47.5254545,19.009649,1986,POINT (19.009988 47.525387)
F00271,Vöröstorony lépcső,47.5311295,18.997639999999997,1992,POINT (18.997248 47.531354)
F00273,Nagybányai út,47.533628,18.993368,1995,POINT (18.993368 47.533628)
F00280,Harangvirág utca,47.521596,18.9977085,1998,POINT (18.997536 47.521794)
F00282,Virág árok,47.5193395,19.000718,1999,POINT (19.00099 47.519178)
F00286,Júlia utca,47.514454,19.006856,2122,POINT (19.007221 47.514243)
F00288,Vasas sportpálya,47.511702,19.008657,2126,POINT (19.008418 47.51194)
F00292,Tüske utca,47.521498,19.0059635,1997,POINT (19.006362 47.521197)
F00297,Hankóczy Jenő utca,47.516889,19.008902,2022,POINT (19.008902 47.516889)
F00298,Zilah utca,47.515604,19.011558,2023,POINT (19.011558 47.515604)
F00299,Detrekő utca,47.517349,19.012433,2024,POINT (19.012433 47.517349)
F00300,Balogvár utca,47.5151945,19.0145605,2016,POINT (19.014549 47.515396)
F00302,Rókushegyi lépcső,47.5127315,19.017222,2014,POINT (19.017056 47.512889)
F00310,Kelemen László utca,47.52205766666666,18.990333166666666,2005,POINT (18.989152 47.522421)
F00314,Zuhatag sor,47.52594500000001,18.9851225,2103,POINT (18.985992 47.526078)
F00316,Nagyhíd,47.528392999999994,18.9837585,2102,POINT (18.983692 47.528541)
F00318,Vadaskerti utca,47.5318405,18.980885999999998,2100,POINT (18.980992 47.531796)
F00320,Budenz út,47.52029,18.988862,2006,POINT (18.988862 47.52029)
F00321,Széher út,47.525994,18.976838,2106,POINT (18.976838 47.525994)
F00322,Tárogató út,47.527435,18.979439,2105,POINT (18.979439 47.527435)
F00325,Szerb Antal utca,47.5282025,18.981195999999997,2104,POINT (18.981422 47.528081)
F00327,Lipótmezei út,47.530746,18.978437,2101,POINT (18.978816 47.53049)
F00329,Nyéki út,47.534639,18.9739535,2093,POINT (18.973917 47.534771)
F00331,Csibor utca,47.53638,18.9698565,2096,POINT (18.969139 47.53669)
F00345,Heinrich István utca,47.539281,18.970848500000002,2095,POINT (18.970955 47.539299)
F00347,Völgy utca,47.536576999999994,18.975507999999998,2094,POINT (18.975395 47.536739)
F00372,Gondozási Központ,47.5141065,19.0156965,2015,POINT (19.015771 47.514092)
F00416,Széher út 16.,47.521951,18.984624,2117,POINT (18.984624 47.521951)
F00417,Bölöni György utca / Széher út,47.524126,18.980545,2107,POINT (18.980545 47.524126)
F00423,Vöröstorony utca,47.528504,18.999647500000002,1994,POINT (18.999495 47.528558)
F00425,Nyúl utca,47.50875475,19.01794775,2011,POINT (19.018044 47.508723)
F00429,Akadémia,47.51926925,18.993907,2001,POINT (18.993449 47.519534)
F00435,Pusztadombi utca,47.602488,19.056793,1705,POINT (19.056793 47.602488)
F00436,Égető utca,47.604054,19.052418,1724,POINT (19.052418 47.604054)
F00437,Táncsics Mihály utca,47.602723,19.051234,1725,POINT (19.051234 47.602723)
F00438,Gulácsy Lajos utca,47.602588,19.048122499999998,1726,POINT (19.048242 47.602642)
F00440,Szőlőkert utca,47.554761,19.040729,1964,POINT (19.040682 47.554889)
F00442,Donát utca,47.604207,19.043933,1727,POINT (19.043933 47.604207)
F00443,Bojtár utca 49.,47.5594785,19.038981,1963,POINT (19.039791 47.55944)
F00445,Templom utca,47.6002175,19.046487,1729,POINT (19.04662 47.600312)
F00447,Hősök tere,47.597912750000006,19.0449675,1730,POINT (19.043987 47.598153)
F00449,Tamás utca,47.599492999999995,19.0413005,1728,POINT (19.041154 47.599601)
F00451,Pince köz,47.601572,19.036089,1731,POINT (19.036089 47.601572)
F00454,Zemplén Győző utca,47.59577,19.0454235,1713,POINT (19.04553 47.596121)
F00456,Nád utca,47.594052000000005,19.048780999999998,1712,POINT (19.04912 47.593989)
F00458,Pünkösdfürdő utca,47.594935,19.051752999999998,1722,POINT (19.051673 47.594962)
F00462,Szolgáltatóház,47.6012125,19.057989499999998,1704,POINT (19.058056 47.601212)
F00464,Hímző utca,47.5971235,19.0591195,1718,POINT (19.058734 47.5972)
F00466,Medgyessy Ferenc utca,47.594984499999995,19.057464,1719,POINT (19.058162 47.59489)
F00473,Madzsar József utca / Pünkösdfürdő utca,47.594988,19.053883499999998,1723,POINT (19.054425 47.595277)
F00477,Szent István utca,47.592415,19.052111,1715,POINT (19.052111 47.592415)
F00482,Szent István utca,47.590814,19.049851,1716,POINT (19.049851 47.590814)
F00485,Római tér,47.569797,19.048509,1748,POINT (19.048509 47.569797)
F00486,Monostori út,47.57314,19.050621,1759,POINT (19.050621 47.57314)
F00490,Czetz János köz,47.578694999999996,19.050316000000002,1744,POINT (19.050502 47.578653)
F00493,Attila utca,47.5795125,19.0528285,1743,POINT (19.052762 47.579328)
F00495,Huba utca,47.5814995,19.05451,1742,POINT (19.054477 47.581342)
F00497,Hunyadi utca,47.584877000000006,19.0559995,1739,POINT (19.056099 47.584949)
F00499,Pók utca,47.565278,19.05797,1754,POINT (19.05797 47.565278)
F00500,Dósa utca,47.5756745,19.0571415,1757,POINT (19.056723 47.575751)
F00502,Kadosa utca,47.57126,19.05413,1760,POINT (19.05413 47.57126)
F00504,Sujtás utca,47.563461,19.050927,1751,POINT (19.050927 47.563461)
F00505,Záhony utca,47.5617905,19.048195999999997,1749,POINT (19.048229 47.561375)
F00507,Záhony utca,47.560974,19.04714,1750,POINT (19.04714 47.560974)
F00512,Kaszásdűlő utca,47.5579655,19.0418705,1962,POINT (19.041678 47.557642)
F00514,Dinamó utca,47.563968,19.036284,1918,POINT (19.036284 47.563968)
F00515,Kunigunda útja,47.560105,19.033545,1921,POINT (19.033545 47.560105)
F00516,Kunigunda útja,47.560146,19.035308,1920,POINT (19.035022 47.560362)
F00518,Orbán Balázs út,47.556106,19.026626,1930,POINT (19.026945 47.555809)
F00520,Bojtár utca (Bécsi út),47.5595505,19.024804500000002,1915,POINT (19.024711 47.560099)
F00522,Óbudai temető,47.565958333333334,19.022648,1909,POINT (19.021931 47.566232)
F00529,Szőlővész utca,47.575818,19.013692,1684,POINT (19.013692 47.575818)
F00530,Ürömhegyi út,47.577653,19.010325,1682,POINT (19.010637 47.577568)
F00532,Üröm vasúti megállóhely,47.581603,19.00202,1678,POINT (19.002246 47.581522)
F00534,Királyhelmec utca,47.553442999999994,19.021833666666666,1932,POINT (19.02244 47.553016)
F00537,Judit utca,47.556059000000005,19.018269,1936,POINT (19.018256 47.556113)
F00539,Laborc utca,47.5576955,19.015591,1937,POINT (19.015544 47.557758)
F00541,Jablonka út 53.,47.559008000000006,19.0129525,1926,POINT (19.013152 47.558945)
F00543,Jablonka út 73.,47.560383,19.011045,1925,POINT (19.010959 47.5605)
F00545,Jablonka út,47.562091,19.008167,1922,POINT (19.008167 47.562091)
F00546,Erdőalja út,47.559451,19.006597,1923,POINT (19.006597 47.559451)
F00547,Áldomás utca,47.561936,19.035546500000002,1917,POINT (19.03558 47.561846)
F00549,Kubik utca,47.5619425,19.023727,1914,POINT (19.023634 47.562554)
F00551,Hedvig utca,47.556066,19.011207499999998,1924,POINT (19.011267 47.556066)
F00553,Erdőalja út 43.,47.55309333333333,19.014265666666663,1935,POINT (19.014006 47.553513)
F00556,Körtvélyes köz,47.55327749999999,19.017359,1934,POINT (19.017351 47.553338)
F00558,Óbudai temető,47.56438,19.022503,1910,POINT (19.022503 47.56438)
F00559,Iskola,47.550284500000004,19.0161865,1927,POINT (19.016067 47.550401)
F00561,Királylaki út,47.5489345,19.014982500000002,1928,POINT (19.014843 47.549056)
F00563,Máramaros út,47.546588,19.017132,1929,POINT (19.017132 47.546588)
F00564,Táborhegyi út,47.5499335,19.0261295,1969,POINT (19.025896 47.550156)
F00567,Bécsi út / Vörösvári út,47.547895,19.029632,1971,POINT (19.029632 47.547895)
F00576,Bogdáni út,47.550154,19.043979,1957,POINT (19.043979 47.550154)
F00577,Bogdáni út,47.548409,19.043102,1958,POINT (19.043102 47.548409)
F00580,Raktár utca,47.54498266666667,19.042602,1948,POINT (19.042837 47.545288)
F00584,Óbudai rendelőintézet,47.546735,19.032621,1974,POINT (19.032621 47.546735)
F00587,Óbudai rendelőintézet,47.544878,19.034772,1951,POINT (19.034772 47.544878)
F00588,Vihar utca,47.543758,19.036433000000002,1949,POINT (19.036393 47.543987)
F00594,Szent Margit Kórház,47.539976249999995,19.031139,1946,POINT (19.031202 47.539936)
F00598,Katinyi mártírok parkja,47.5324665,19.03661,2044,POINT (19.036517 47.532615)
F00602,Galagonya utca,47.530133,19.039386,2045,POINT (19.039386 47.530133)
F00603,Nagyszombat utca,47.531833,19.040023,2046,POINT (19.040023 47.531833)
F00604,Tímár utca,47.53474249999999,19.0398495,2047,POINT (19.039969 47.535152)
F00606,Kiscelli utca,47.5389835,19.040453499999998,1941,POINT (19.0405 47.538723)
F00608,Remetehegyi út,47.535342,19.027243,2053,POINT (19.027243 47.535342)
F00609,Mikoviny utca,47.532509,19.028751999999997,2056,POINT (19.029051 47.53214)
F00611,Flórián tér,47.542896,19.042252,1945,POINT (19.042252 47.542896)
F00612,Flórián tér,47.541548,19.040864,1944,POINT (19.04119 47.541987)
F00613,Flórián tér,47.54161766666667,19.039744,1943,POINT (19.040088 47.541664)
F00617,ATI,47.5700585,19.0186265,1701,POINT (19.018314 47.570567)
F00630,Bóbita utca,47.572401,19.0165455,1699,POINT (19.016226 47.572851)
F00634,Szélvész utca,47.531425,19.020362,1981,POINT (19.020342 47.531479)
F00636,Madzsar József utca / Hadrianus utca,47.603002,19.059267,1702,POINT (19.059267 47.603002)
F00637,Madzsar József utca / Hadrianus utca,47.604018,19.060836,1703,POINT (19.060836 47.604018)
F00638,Hadrianus utca,47.603972999999996,19.0631505,1707,POINT (19.06335 47.604009)
F00645,Bálint György utca,47.5996595,19.0650575,1706,POINT (19.064971 47.599277)
F00649,Hatvany Lajos utca / Juhász Gyula utca,47.5970155,19.062922,1711,POINT (19.063294 47.597174)
F00654,Pünkösdfürdő,47.5943805,19.066072499999997,1710,POINT (19.065793 47.594439)
F00656,Sinkovits Imre utca,47.589802500000005,19.0655595,1709,POINT (19.065606 47.589636)
F00658,Mátyás király út,47.584924,19.0649925,1733,POINT (19.065032 47.58478)
F00660,Szent János utca,47.5793565,19.063914,1732,POINT (19.0641 47.579923)
F00662,Nimród utca,47.575759000000005,19.0627635,1756,POINT (19.06269 47.575822)
F00664,Nánási út,47.570279,19.061613,1753,POINT (19.061613 47.570279)
F00665,Silvanus sétány,47.567193,19.061506,1755,POINT (19.061506 47.567193)
F00669,Laborc utca,47.552221,19.027823,1970,POINT (19.027823 47.552221)
F00670,Csillaghegyi út / Bojtár utca,47.56073,19.0305025,1919,POINT (19.031127 47.56051)
F00672,Zúzmara utca,47.552004,19.023902,1931,POINT (19.023782 47.552215)
F00674,Verhovina utca,47.554504,19.020356,1933,POINT (19.020356 47.554504)
F00676,Szamos utca,47.5824145,19.06464,1734,POINT (19.064793 47.582828)
F00680,Bécsi út / Vörösvári út,47.550117,19.028768,1968,POINT (19.028768 47.550117)
F00681,Kisbojtár utca,47.559888,19.026769,1916,POINT (19.026769 47.559888)
F00682,Bercsényi utca,47.585471,19.0517055,1740,POINT (19.051486 47.585543)
F00684,Selmeci utca,47.535830000000004,19.033587500000003,2048,POINT (19.033342 47.53623)
F00688,Kolostor út,47.533228,19.02577,2054,POINT (19.02577 47.533228)
F00690,Magnólia utca,47.564732,19.030742,1912,POINT (19.030742 47.564732)
F00691,Madridi utca,47.5465775,19.097533,205,POINT (19.097433 47.546519)
F00697,Fóti út,47.58290366666666,19.08196433333333,1852,POINT (19.08161 47.582435)
F00700,Tímár utca,47.572351999999995,19.080879,1834,POINT (19.080806 47.572325)
F00702,Zsilip utca,47.5683695,19.0802445,1883,POINT (19.080019 47.567927)
F00704,Károlyi István utca,47.565271,19.079223499999998,1885,POINT (19.079234 47.565589)
F00707,"Megyer, Julianus barát utca",47.584925,19.086158,1850,POINT (19.086158 47.584925)
F00708,Gárdonyi Géza utca,47.58424,19.090438,1847,POINT (19.090438 47.58424)
F00709,Megyeri temető,47.5819585,19.090361,1846,POINT (19.090767 47.582507)
F00711,Fiumei út,47.582551,19.085997,1851,POINT (19.085997 47.582551)
F00712,Megyeri út / Fóti út,47.57974125,19.08846525,1841,POINT (19.088653 47.579636)
F00717,"Megyer, Szondi utca",47.5859235,19.094578499999997,1845,POINT (19.094053 47.5856)
F00723,"Káposztásmegyer, Megyeri út",47.593259666666675,19.120263666666666,1776,POINT (19.12007 47.593184)
F00726,Szíjgyártó utca,47.589041,19.1145135,1778,POINT (19.114919 47.58923)
F00728,Homoktövis utca,47.589732,19.117832,1779,POINT (19.11831 47.589417)
F00730,Gimnázium,47.582713,19.1060575,1765,POINT (19.106177 47.582749)
F00732,Művelődési Központ,47.579696999999996,19.109174000000003,1768,POINT (19.109307 47.579755)
F00735,Járműtelep utca,47.582319,19.1169735,1763,POINT (19.117047 47.582539)
F00739,Hajló utca,47.578683,19.1124965,1769,POINT (19.112377 47.578773)
F00743,Óceán-árok utca,47.577902,19.116033,1762,POINT (19.116151 47.578088)
F00747,Ugró Gyula utca,47.580363,19.099139,1843,POINT (19.099139 47.580363)
F00748,Erdősor út,47.57797933333333,19.106443333333335,1767,POINT (19.106953 47.578093)
F00751,Iglói utca,47.573112,19.102883499999997,1855,POINT (19.102987 47.573661)
F00752,Vadgesztenye utca,47.575378,19.104398,1856,POINT (19.104398 47.575378)
F00753,Fóti út,47.577413,19.093225,1837,POINT (19.093501 47.577829)
F00757,Bucka utca,47.57483033333333,19.098259000000002,1854,POINT (19.098363 47.575003)
F00768,Irányi Dániel utca,47.577055,19.086658,1842,POINT (19.086658 47.577055)
F00769,Irányi Dániel utca / Baross utca,47.57530250000001,19.0908545,1838,POINT (19.09128 47.575653)
F00770,Irányi Dániel utca / Baross utca,47.574053,19.08983,1839,POINT (19.08983 47.574053)
F00773,Vécsey Károly utca,47.56978,19.099412666666666,1857,POINT (19.099594 47.569777)
F00776,Nádor utca,47.569416999999994,19.093113,1860,POINT (19.09364 47.569303)
F00779,Szent László tér,47.567622,19.097488,1858,POINT (19.097877 47.567016)
F00782,Illek Vince utca,47.565842,19.0885545,1879,POINT (19.088322 47.565716)
F00784,Csokonai utca,47.564977999999996,19.090567,1878,POINT (19.090527 47.565032)
F00786,Kiss Ernő utca,47.5649715,19.094321,1905,POINT (19.094022 47.565003)
F00787,Kiss Ernő utca,47.56486,19.0926,1906,POINT (19.0926 47.56486)
F00789,Újpesti rendelőintézet,47.565371999999996,19.10006825,1907,POINT (19.099843 47.565765)
F00793,Újpesti piac,47.563133,19.08759,1881,POINT (19.088375 47.563077)
F00795,Szent István tér (Újpesti piac),47.5629925,19.0906795,1880,POINT (19.090594 47.562815)
F00808,Árpád út,47.56106,19.079522,1876,POINT (19.079522 47.56106)
F00811,Újpest-városkapu M (Temesvári utca),47.55967,19.082379,1875,POINT (19.082379 47.55967)
F00812,Csányi László utca,47.558036,19.085353,1892,POINT (19.085353 47.558036)
F00813,Aradi utca,47.556539,19.084371,1893,POINT (19.084371 47.556539)
F00816,Tél utca / Pozsonyi utca,47.55533033333334,19.090072333333335,1895,POINT (19.090294 47.555615)
F00818,Tél utca / Pozsonyi utca,47.556653000000004,19.08873566666667,1894,POINT (19.088846 47.556218)
F00820,Angyalföld kocsiszín,47.5530375,19.09191925,1887,POINT (19.092696 47.553114)
F00826,Bőröndös utca,47.5854035,19.1173435,1781,POINT (19.11749 47.585597)
F00828,Újpesti Erőmű,47.555085000000005,19.100251,1898,POINT (19.09966 47.555171)
F00830,Elem utca,47.5547095,19.104419,1896,POINT (19.104552 47.55484)
F00832,Munkásotthon utca,47.559074,19.099332,1904,POINT (19.099332 47.559074)
F00833,Árpád üzletház,47.56064825,19.09896075,1903,POINT (19.098868 47.561062)
F00837,Víztorony,47.56215133333333,19.107095666666666,1865,POINT (19.106656 47.562273)
F00841,Kiss János utca,47.563328,19.110022999999998,1863,POINT (19.109744 47.563436)
F00848,Mildenberger utca,47.572177,19.088065,1833,POINT (19.088008 47.572435)
F00851,Attila utca,47.564032,19.0823095,1884,POINT (19.082303 47.564086)
F00853,Görgey Artúr út,47.565221333333334,19.10677133333333,1866,POINT (19.107872 47.565092)
F00854,Erzsébet utca,47.559818,19.0945555,1902,POINT (19.095306 47.559705)
F00863,Brüsszeli utca,47.549147000000005,19.098553000000003,206,POINT (19.098578 47.549334)
F00867,Béla utca,47.580534,19.0815675,1840,POINT (19.081673 47.580747)
F00869,Tungsram,47.576375999999996,19.081225,1836,POINT (19.081338 47.576547)
F00871,Dunakeszi utca,47.585117999999994,19.108473,1766,POINT (19.109052 47.585527)
F00873,Zombori utca,47.571956,19.106165500000003,1867,POINT (19.10574 47.572001)
F00875,Pajtás utca,47.571451,19.108238,1868,POINT (19.108238 47.571451)
F00876,Deák Ferenc utca / Rózsa utca,47.56371,19.099854,1908,POINT (19.10012 47.564173)
F00878,Nap utca,47.5552845,19.09499,1886,POINT (19.094811 47.555379)
F00884,Izzó utca,47.579991,19.095754,1844,POINT (19.095754 47.579991)
F00885,Árpád Kórház,47.5612175,19.103372999999998,1899,POINT (19.103785 47.561402)
F00887,Ősz utca,47.557542,19.1057975,1901,POINT (19.105858 47.557798)
F00889,Elem utca,47.5544545,19.101519,1897,POINT (19.101519 47.554306)
F00891,Ősz utca,47.557401,19.100479,1900,POINT (19.100685 47.557275)
F00893,Langlet Waldemár utca,47.567054,19.0825835,1882,POINT (19.082637 47.56718)
F00895,Perényi Zsigmond utca,47.570048,19.0856555,1832,POINT (19.085775 47.570093)
F00900,Kordován tér,47.5875585,19.112112,1780,POINT (19.112578 47.587783)
F00904,Bőrfestő utca,47.5876155,19.118217,1782,POINT (19.11837 47.587809)
F00906,Székpatak utca,47.596014499999995,19.1211795,1792,POINT (19.121067 47.596181)
F00908,Sárpatak utca,47.593092999999996,19.1178585,1777,POINT (19.117141 47.593332)
F00918,Fővám tér M,47.486934000000005,19.057220800000003,463,POINT (19.056841 47.486754)
F00924,Petőfi tér,47.493105,19.050566,374,POINT (19.050566 47.493105)
F00929,Jászai Mari tér,47.512301,19.050062,322,POINT (19.050115 47.512532)
F00932,Szent István körút,47.512046,19.052319,323,POINT (19.052319 47.512046)
F00938,Báthory utca / Bajcsy-Zsilinszky út,47.50671475,19.0551425,286,POINT (19.05427 47.507063)
F00942,Arany János utca M,47.5030925,19.0549195,293,POINT (19.055105 47.503304)
F00951,Ferenciek tere M,47.492922,19.055294666666665,371,POINT (19.055343 47.492925)
F00966,Vigadó tér,47.4955915,19.048361999999997,368,POINT (19.048402 47.495569)
F00968,"Országház, látogatóközpont",47.5090015,19.046677,276,POINT (19.04677 47.50915)
F00979,József nádor tér,47.498780000000004,19.050889,360,POINT (19.050221 47.498726)
F00982,Szervita tér,47.495371,19.052782,370,POINT (19.052782 47.495371)
F00986,Zrínyi utca,47.499679,19.049464,361,POINT (19.049464 47.499679)
F00990,Markó utca,47.508970000000005,19.050341,277,POINT (19.051164 47.509123)
F01020,Széchenyi utca,47.503142,19.048522,280,POINT (19.048522 47.503142)
F01021,Hercegprímás utca,47.502261,19.051986,294,POINT (19.051986 47.502261)
F01022,Hold utca (Belvárosi piac),47.505148,19.052398,288,POINT (19.052398 47.505148)
F01030,Nyugati pályaudvar M (Podmaniczky utca),47.5091995,19.0586305,301,POINT (19.058664 47.509123)
F01032,Akácfa utca,47.502103000000005,19.062976,284,POINT (19.062989 47.502054)
F01034,Király utca / Erzsébet körút,47.503181500000004,19.06585025,285,POINT (19.06595 47.503573)
F01040,Izabella utca / Király utca,47.50556425,19.069454500000003,418,POINT (19.070171 47.505497)
F01044,Lövölde tér,47.5071015,19.071944000000002,417,POINT (19.071765 47.506899)
F01046,Reformáció park,47.508014,19.075733999999997,411,POINT (19.075442 47.508185)
F01057,Vágány utca / Dózsa György út,47.518858,19.072690333333334,297,POINT (19.072898 47.518807)
F01060,Vágány utca / Dózsa György út,47.519635,19.070934,298,POINT (19.070934 47.519635)
F01061,Dévai utca,47.518602,19.0649525,316,POINT (19.064667 47.518494)
F01068,Ferdinánd híd (Izabella utca),47.510112,19.062341,308,POINT (19.062341 47.510112)
F01069,Ferdinánd híd (Izabella utca),47.51133725,19.06268,307,POINT (19.062594 47.511695)
F01073,Munkácsy Mihály utca,47.51479966666667,19.068847666666667,299,POINT (19.069963 47.515138)
F01074,Rippl-Rónai utca,47.514904,19.072299,300,POINT (19.072299 47.514904)
F01106,Szinyei Merse utca,47.513102,19.065116500000002,306,POINT (19.065037 47.513169)
F01109,Nyár utca,47.498554,19.06551,487,POINT (19.06551 47.498554)
F01110,Nagy Diófa utca,47.49583466666667,19.065288,486,POINT (19.065642 47.496278)
F01111,Wesselényi utca / Erzsébet körút,47.500361,19.06913833333333,476,POINT (19.068948 47.500325)
F01117,Wesselényi utca / Izabella utca,47.5026855,19.072858,406,POINT (19.073555 47.502825)
F01119,Dob utca,47.503805,19.0734755,407,POINT (19.072507 47.503877)
F01121,Rottenbiller utca / István utca,47.502932,19.076992500000003,403,POINT (19.077404 47.502824)
F01123,Bethlen Gábor utca,47.506422,19.076609,413,POINT (19.076609 47.506422)
F01124,Nefelejcs utca / Damjanich utca,47.50742866666667,19.077985666666667,412,POINT (19.077751 47.507177)
F01127,Bethlen Gábor tér,47.504514,19.078414,409,POINT (19.078414 47.504514)
F01128,Nefelejcs utca,47.505936,19.079239,410,POINT (19.079239 47.505936)
F01129,Nefelejcs utca / István utca,47.504532,19.080783,408,POINT (19.080365 47.504532)
F01131,Keleti pályaudvar M (Garay utca),47.501824,19.082036,490,POINT (19.082036 47.501824)
F01134,Damjanich utca / Dózsa György út,47.509413,19.0822195,397,POINT (19.0822 47.509712)
F01138,Dembinszky utca,47.508133,19.083699000000003,396,POINT (19.083752 47.508344)
F01140,Ötvenhatosok tere,47.506302000000005,19.08579466666667,399,POINT (19.08622 47.50641)
F01143,Cserhát utca,47.503703,19.085939,381,POINT (19.085939 47.503703)
F01144,Reiner Frigyes park,47.503866,19.088846,380,POINT (19.088368 47.50426)
F01150,Verseny utca,47.501816500000004,19.09055,383,POINT (19.090822 47.501758)
F01161,Huszár utca,47.4991675,19.078052,493,POINT (19.07772 47.499199)
F01163,Kiss József utca,47.497509,19.074043,482,POINT (19.074043 47.497509)
F01173,Szövetség utca,47.500288,19.072996,477,POINT (19.072996 47.500288)
F01174,Szentkirályi utca,47.489083,19.066329500000002,473,POINT (19.065852 47.488975)
F01176,Muzsikus cigányok parkja,47.4891205,19.080382,499,POINT (19.079639 47.489278)
F01180,Kőbányai út 21.,47.488967,19.095668500000002,438,POINT (19.095841 47.488985)
F01182,Gumigyár,47.4995845,19.0959365,382,POINT (19.095784 47.499688)
F01184,Magdolna utca,47.492006333333336,19.088333000000002,437,POINT (19.089102 47.491919)
F01197,Harminckettesek tere,47.48969825,19.071087,497,POINT (19.070589 47.489559)
F01207,Horváth Mihály tér,47.4894855,19.077052000000002,498,POINT (19.076707 47.489594)
F01209,Mátyás tér,47.49221,19.078798,502,POINT (19.078579 47.492381)
F01211,Teleki László tér (Szerdahelyi utca),47.492344,19.083496,503,POINT (19.083516 47.492425)
F01215,Magdolna utca,47.492873,19.087298,436,POINT (19.087298 47.492873)
F01218,Orczy tér,47.4890135,19.091746999999998,444,POINT (19.092218 47.48913)
F01221,Kálvária tér,47.48926525,19.08563025,435,POINT (19.085916 47.489888)
F01225,Csobánc utca,47.488403,19.08825,443,POINT (19.08825 47.488403)
F01226,Golgota tér,47.486441,19.092713500000002,440,POINT (19.092866 47.486423)
F01228,Golgota tér,47.4852305,19.092892,441,POINT (19.092865 47.484992)
F01234,Semmelweis Klinikák M,47.482298,19.079926999999998,456,POINT (19.080113 47.482334)
F01236,Elnök utca,47.4814935,19.093439500000002,454,POINT (19.093419 47.481224)
F01240,Bláthy Ottó utca,47.483551,19.0993255,453,POINT (19.099737 47.483497)
F01250,Arena Mall bevásárlóközpont,47.4995775,19.090581,384,POINT (19.089851 47.499708)
F01258,Vajda Péter utca (Villám utca),47.482416,19.102667500000003,450,POINT (19.10284 47.482443)
F01271,Hidegkuti Nándor Stadion,47.49004,19.108249,604,POINT (19.108249 47.49004)
F01278,Asztalos Sándor út,47.4900555,19.105276500000002,609,POINT (19.105038 47.490096)
F01280,"Salgótarjáni utca, temető",47.490944999999996,19.0966855,439,POINT (19.096334 47.491026)
F01294,Blaha Lujza tér M (Népszínház utca),47.49596233333333,19.071844000000002,481,POINT (19.071256 47.496151)
F01300,II. János Pál pápa tér M,47.49453775,19.077094250000002,501,POINT (19.07655 47.494819)
F01309,Dologház utca,47.4964045,19.0832595,492,POINT (19.08312 47.496445)
F01328,Hős utca,47.495993999999996,19.1091065,601,POINT (19.109135 47.496282)
F01330,Teleki László tér,47.4935765,19.0823355,504,POINT (19.081884 47.493604)
F01332,Kőris utca,47.487206,19.0892975,442,POINT (19.088979 47.48726)
F01337,Czuczor utca,47.48451,19.062381000000002,467,POINT (19.062308 47.485108)
F01339,Ráday utca,47.485548,19.06593,475,POINT (19.06593 47.485548)
F01341,Koppány utca,47.4660755,19.0813505,1395,POINT (19.081204 47.466162)
F01345,Lónyay utca,47.482418,19.064775,469,POINT (19.064775 47.482418)
F01349,Kén utca,47.457175,19.089142,1215,POINT (19.089142 47.457031)
F01351,Beöthy utca,47.4603565,19.0823075,1375,POINT (19.08246 47.46037)
F01355,Földváry utca,47.462763,19.080141,1377,POINT (19.080141 47.462763)
F01356,Koppány utca,47.465426,19.078392,1396,POINT (19.078392 47.465426)
F01357,Fegyvergyár utca,47.4486685,19.0939555,1205,POINT (19.093684 47.449015)
F01359,Soroksári út 158.,47.4480225,19.090607,1206,POINT (19.090422 47.44863)
F01363,Börzsöny utca,47.466941,19.111923500000003,626,POINT (19.111844 47.467085)
F01365,Merényi Gusztáv Kórház,47.4680305,19.101101,611,POINT (19.101154 47.467882)
F01366,Epreserdő utca,47.459719,19.111629999999998,1191,POINT (19.111743 47.459683)
F01368,Aranyvirág sétány,47.467625999999996,19.1095175,628,POINT (19.109816 47.467689)
F01370,Nagykőrösi út / Határ út,47.454451500000005,19.1136655,1186,POINT (19.113036 47.454618)
F01378,Mester utca / Ferenc körút,47.482181,19.068671,459,POINT (19.068463 47.482184)
F01381,Bokréta utca,47.4793095,19.0724425,458,POINT (19.07223 47.479503)
F01390,Haller utca / Mester utca,47.476039,19.076587,1387,POINT (19.076355 47.476021)
F01393,Haller utca / Mester utca,47.47591666666667,19.07798466666667,1386,POINT (19.077774 47.475625)
F01400,Török Pál utca,47.487779,19.061075,466,POINT (19.061075 47.487779)
F01408,"József Attila ltp., Távíró utca",47.460599,19.114913,1189,POINT (19.114913 47.460599)
F01411,Helyi kikötő út,47.4633155,19.0728935,1381,POINT (19.072701 47.463167)
F01413,Magyar Aszfalt,47.459765000000004,19.087758,1214,POINT (19.087871 47.459702)
F01421,Illatos út,47.45412275,19.090943,1217,POINT (19.090479 47.454674)
F01425,Külső Mester utca,47.454289,19.096831,1212,POINT (19.096221 47.45424)
F01427,Timót utca,47.4520245,19.092062,1203,POINT (19.09187 47.452218)
F01429,Timót utca / Soroksári út,47.451265500000005,19.088805999999998,1204,POINT (19.08874 47.451661)
F01431,Szabadkai út,47.44392,19.092851000000003,1208,POINT (19.092818 47.444311)
F01440,Határ út,47.441801,19.095022999999998,1207,POINT (19.09499 47.442053)
F01442,Ősz utca,47.4461235,19.100258500000002,1211,POINT (19.10022 47.44605)
F01444,Jókai Mór utca / Határ út,47.44873733333333,19.104542666666664,1175,POINT (19.104503 47.44901)
F01447,Mártírok útja / Határ út,47.451898,19.109165333333333,1176,POINT (19.109095 47.452039)
F01449,Mártírok útja / Határ út,47.450887,19.110592,1177,POINT (19.110592 47.450887)
F01451,Nagykőrösi út / Határ út,47.455577250000005,19.11428825,1187,POINT (19.114695 47.455418)
F01455,Mészáros Lőrinc utca,47.4595765,19.120419000000002,662,POINT (19.120986 47.459749)
F01463,Kőér utcai uszoda,47.466580500000006,19.1263565,660,POINT (19.126213 47.466517)
F01465,Pöttyös utca M,47.468714500000004,19.1173045,629,POINT (19.117431 47.4688)
F01467,Friss utca,47.463421,19.117928,632,POINT (19.117928 47.463421)
F01468,Valéria tér,47.465136,19.115243999999997,631,POINT (19.116099 47.464933)
F01470,Lobogó utca,47.4618575,19.11524,1188,POINT (19.114915 47.462029)
F01474,Táblás utca,47.4554235,19.104112,1213,POINT (19.10325 47.45537)
F01479,Gyáli út,47.464706,19.103857,622,POINT (19.103857 47.464706)
F01487,Ifjúmunkás utca,47.46821,19.1109705,627,POINT (19.110997 47.468147)
F01492,Péceli utca,47.469484,19.099352,612,POINT (19.099352 47.469484)
F01502,Ferencváros vá. - Málenkij Robot Eh.,47.47039,19.089329666666668,1382,POINT (19.089313 47.470305)
F01506,Mester utca / Könyves Kálmán körút,47.47002,19.0828785,1383,POINT (19.082997 47.469814)
F01511,Balázs Béla utca,47.47679633333333,19.082067999999996,1390,POINT (19.08259 47.476946)
F01525,Csengettyű utca,47.463507,19.109585000000003,619,POINT (19.109479 47.46357)
F01531,Balkán utca,47.473905,19.1158985,650,POINT (19.116058 47.474062)
F01533,Sporttelep,47.47884,19.1132645,649,POINT (19.113662 47.478759)
F01535,Fertő utca / Bihari utca,47.476045,19.118766666666662,651,POINT (19.119165 47.476066)
F01537,Fertő utca / Bihari utca,47.475256,19.120066,652,POINT (19.120066 47.475256)
F01539,Basa utca,47.4704355,19.126678499999997,654,POINT (19.126533 47.470602)
F01545,Felsőcsatári út,47.456645333333334,19.177020333333335,1041,POINT (19.177716 47.457379)
F01546,Hangár utca,47.462082,19.166487500000002,1037,POINT (19.167024 47.461699)
F01547,Gyömrői út 105.,47.463367500000004,19.1627895,531,POINT (19.163472 47.463169)
F01549,Árpád utca,47.463877499999995,19.177997,505,POINT (19.177904 47.463657)
F01551,Álmos utca,47.467271999999994,19.178635,506,POINT (19.178576 47.467524)
F01553,Bogáncsvirág utca,47.483583,19.1962715,88,POINT (19.196245 47.483628)
F01555,Kőbánya felső vasútállomás,47.492543,19.133824,573,POINT (19.133824 47.492543)
F01556,IV. kapu,47.492023,19.130466,574,POINT (19.130466 47.492023)
F01557,II. kapu,47.491551,19.123909,589,POINT (19.123909 47.491551)
F01558,"Vásárközpont, főbejárat",47.4931,19.121005,583,POINT (19.121005 47.4931)
F01559,Pongrácz úti lakótelep,47.4905815,19.1211415,585,POINT (19.120923 47.490753)
F01561,Őrház,47.4894775,19.124762500000003,588,POINT (19.124517 47.489473)
F01563,Egészségház,47.48397525,19.11716175,606,POINT (19.116668 47.484126)
F01567,Mázsa utca,47.4831505,19.123335500000003,576,POINT (19.123384 47.483195)
F01569,Kőbánya alsó vasútállomás,47.483095,19.12611975,581,POINT (19.126485 47.483437)
F01574,Kőbánya alsó vasútállomás (Mázsa tér),47.481718,19.127066,580,POINT (19.127066 47.481718)
F01575,Kocsis Sándor Sportközpont,47.4787975,19.123679000000003,648,POINT (19.12348 47.478717)
F01577,Kőér utca,47.4737565,19.1350895,642,POINT (19.135133 47.47378)
F01579,Gyömrői út,47.471677,19.142014,639,POINT (19.141848 47.471632)
F01581,Diósgyőri utca,47.4705015,19.143828499999998,638,POINT (19.143835 47.470443)
F01583,Felüljáró,47.465270000000004,19.152561499999997,535,POINT (19.152296 47.465158)
F01585,Újhegyi út,47.4650355,19.158343000000002,529,POINT (19.157601 47.465396)
F01588,"Újhegyi út, Sportliget",47.468194,19.169012000000002,525,POINT (19.168683 47.468083)
F01590,Dolomit utca,47.469565,19.169158,526,POINT (19.169158 47.469565)
F01591,Maglódi út,47.470411999999996,19.173755,509,POINT (19.17333 47.470264)
F01600,Gránátos utca,47.481461499999995,19.1776025,538,POINT (19.177509 47.481187)
F01602,Kozma utca,47.487131000000005,19.1789165,545,POINT (19.178599 47.487509)
F01604,Athenaeum Nyomda,47.48703,19.180522,546,POINT (19.180522 47.48703)
F01605,Kossuth Nyomda,47.4865815,19.186936000000003,541,POINT (19.187221 47.486626)
F01609,Túzok utca,47.4869835,19.192981,86,POINT (19.192716 47.487051)
F01611,Keresztúri út 102.,47.4908205,19.168886999999998,549,POINT (19.168549 47.490929)
F01613,Rákos vasútállomás,47.488265,19.173856999999998,542,POINT (19.174156 47.488296)
F01615,Maglódi út,47.490271,19.149124999999998,554,POINT (19.149107 47.490455)
F01619,Sörgyár,47.49175625,19.144907749999998,555,POINT (19.14477 47.491733)
F01623,Élessarok,47.49154025,19.138431750000002,564,POINT (19.138015 47.491037)
F01628,Élessarok,47.491948,19.1402,565,POINT (19.1402 47.491948)
F01629,Harmat utca,47.489469,19.1364825,571,POINT (19.136824 47.489707)
F01630,Kőrösi Csoma Sándor út,47.488618,19.137652,570,POINT (19.137427 47.488852)
F01637,Hízlaló tér,47.472389,19.123942,653,POINT (19.12424 47.472267)
F01639,Liget tér,47.482098750000006,19.12879075,579,POINT (19.128809 47.481743)
F01641,Liget tér,47.482532250000006,19.1306365,578,POINT (19.130358 47.482795)
F01648,Szent László tér,47.4854822,19.131296600000002,577,POINT (19.131424 47.485277)
F01655,Kápolna utca,47.4814,19.135802,637,POINT (19.135112 47.481649)
F01658,Gyula utca,47.461508,19.169172,1038,POINT (19.169172 47.461508)
F01659,Ihász utca,47.479472,19.135347000000003,636,POINT (19.135307 47.479562)
F01664,Kőér utca,47.477391499999996,19.138548,633,POINT (19.139032 47.477175)
F01666,Óhegy park,47.479792,19.1411995,634,POINT (19.140716 47.480143)
F01668,Ihász utca,47.485907,19.142079,553,POINT (19.142079 47.485907)
F01669,Ihász utca,47.4839985,19.144418,551,POINT (19.143855 47.484287)
F01671,Csősztorony,47.482972,19.145882,552,POINT (19.145882 47.482972)
F01672,Téglavető utca,47.483671,19.149068,561,POINT (19.149068 47.483671)
F01673,Gitár utca,47.487058000000005,19.152972,556,POINT (19.153055 47.487031)
F01676,Kada utca / Maglódi út,47.48261,19.15830525,563,POINT (19.158401 47.482897)
F01681,Kada utca / Mádi utca,47.479418333333335,19.154065666666668,517,POINT (19.153464 47.479359)
F01684,Kada utca / Harmat utca,47.4779345,19.151949000000002,516,POINT (19.151591 47.478038)
F01686,Márga utca,47.4777515,19.144297,644,POINT (19.144082 47.47782)
F01688,Kemence utca,47.475811,19.147839,646,POINT (19.148071 47.475865)
F01695,Mélytó utca,47.468196000000006,19.16412,524,POINT (19.163416 47.467837)
F01697,Szövőszék utca,47.472054,19.159585,518,POINT (19.159273 47.471843)
F01699,Sibrik Miklós út,47.47356,19.160391,519,POINT (19.160391 47.47356)
F01700,Sibrik Miklós út,47.472168499999995,19.162609500000002,521,POINT (19.16206 47.472668)
F01701,Lavotta utca,47.475218,19.157091,514,POINT (19.157091 47.475218)
F01703,Lavotta utca,47.476907,19.158952,515,POINT (19.158952 47.476907)
F01704,Mádi utca,47.473537,19.163953,522,POINT (19.163953 47.473537)
F01705,Mádi utca,47.475069,19.162039,520,POINT (19.162039 47.475069)
F01706,Venyige utca,47.477447,19.165666,513,POINT (19.165189 47.477675)
F01710,Sírkert út,47.474486,19.169334,511,POINT (19.169334 47.474486)
F01711,Sírkert út,47.47374966666666,19.171463666666668,510,POINT (19.171309 47.47372)
F01714,Tavas utca,47.470394,19.164907,527,POINT (19.165304 47.469975)
F01715,Legényrózsa utca,47.4862915,19.199461,80,POINT (19.199309 47.486386)
F01717,Határmalom utca,47.488923,19.218437,75,POINT (19.218437 47.488923)
F01718,Határmalom utca,47.488875,19.220507,76,POINT (19.220507 47.488875)
F01719,501. utca,47.485262750000004,19.21683975,74,POINT (19.215879 47.485734)
F01723,Gyömrői út 156.,47.460265,19.170482,1039,POINT (19.170482 47.460265)
F01724,III. kapu,47.491422,19.12805,587,POINT (19.12805 47.491422)
F01725,Kistorony park,47.4863475,19.124214,575,POINT (19.124366 47.486055)
F01727,Kőbánya felső vasútállomás,47.490883499999995,19.133045000000003,572,POINT (19.133158 47.490942)
F01729,Halom utca,47.4901045,19.1284855,586,POINT (19.128618 47.490163)
F01731,Eiffel Műhelyház,47.484996249999995,19.113477749999998,607,POINT (19.113882 47.485009)
F01735,Őrnagy utca,47.500597,19.112495,590,POINT (19.11219 47.500696)
F01737,Várna utca,47.501291,19.11552166666667,598,POINT (19.115376 47.501747)
F01744,Hős utca,47.497213,19.116187,596,POINT (19.116008 47.497564)
F01746,Expó tér,47.495295,19.119695,597,POINT (19.119695 47.495295)
F01769,Gyakorló köz,47.501670000000004,19.14212,730,POINT (19.141556 47.501657)
F01771,Gyakorló köz,47.5039,19.142742,731,POINT (19.143306 47.503832)
F01773,Halas utca,47.50251,19.153132,705,POINT (19.153245 47.502519)
F01775,Egyenes utcai lakótelep,47.505644000000004,19.158912,707,POINT (19.159025 47.505716)
F01779,Albertirsai köz,47.49387,19.13859,568,POINT (19.13859 47.49387)
F01780,Terebesi utca,47.4934,19.141283,567,POINT (19.141283 47.4934)
F01781,Terebesi utca,47.49435400000001,19.14061,566,POINT (19.140449 47.494246)
F01784,EGIS Gyógyszergyár,47.4998655,19.153776999999998,704,POINT (19.153719 47.500495)
F01786,MÁV-telep,47.493677,19.163366,548,POINT (19.163631 47.493596)
F01788,Dömsödi utca,47.5030405,19.167827,709,POINT (19.167734 47.502919)
F01794,Kelemen utca,47.4770635,19.132159,635,POINT (19.132424 47.47691)
F01796,Gyógyszergyár,47.472363,19.138791,643,POINT (19.138559 47.472399)
F01798,Kőbányai garázs,47.490649000000005,19.1141215,603,POINT (19.114248 47.490712)
F01804,Vasgyár utca,47.469068,19.1476865,641,POINT (19.147985 47.469009)
F01806,Sibrik Miklós út,47.467175999999995,19.152714,534,POINT (19.153022 47.467152)
F01808,Izraelita temető,47.479262,19.177787,539,POINT (19.177889 47.479379)
F01812,Meténg utca,47.484577,19.178604999999997,544,POINT (19.178751 47.484712)
F01814,Fővárosi Kertészet,47.489368,19.177356,543,POINT (19.177754 47.489354)
F01816,Díszítő üzem,47.4882725,19.1836695,540,POINT (19.18363 47.488331)
F01818,Tárna utca,47.4893945,19.16424,550,POINT (19.163789 47.489377)
F01822,Téglavető utca,47.4896915,19.1596915,557,POINT (19.160418 47.489596)
F01824,Orion,47.4899745,19.1557775,558,POINT (19.156703 47.489843)
F01827,Ónodi utca,47.488602,19.135237,569,POINT (19.135237 47.488602)
F01829,Kocka utca,47.48485875,19.155780749999998,562,POINT (19.15597 47.484879)
F01833,Bajcsy-Zsilinszky Kórház,47.47987425,19.16242075,512,POINT (19.16201 47.480034)
F01837,Kocka utca,47.481834,19.151492,559,POINT (19.151492 47.481834)
F01838,Szlávy utca,47.480649,19.148929,560,POINT (19.148929 47.480649)
F01839,Szlávy utca,47.475536000000005,19.141741500000002,645,POINT (19.141284 47.475743)
F01843,Bányató utca,47.468991,19.1607325,523,POINT (19.160964 47.468748)
F01845,Tavas utca,47.471483,19.166562,528,POINT (19.166562 47.471483)
F01846,Rézvirág utca,47.48641975,19.203034000000002,81,POINT (19.202373 47.486265)
F01848,Dombhát utca,47.485922,19.2096755,82,POINT (19.209442 47.486012)
F01850,Gépmadár utca,47.502246,19.1474105,729,POINT (19.147517 47.502309)
F01852,Pilisi utca,47.5022425,19.161234999999998,708,POINT (19.160697 47.502234)
F01854,Gépmadár park,47.5043235,19.1465985,738,POINT (19.146214 47.504414)
F01856,Pongrácz úti lakótelep,47.491257000000004,19.120034,584,POINT (19.120286 47.491221)
F01858,Hungaropharma,47.482085,19.203944999999997,83,POINT (19.20452 47.481836)
F01860,Fehér úti ipari park,47.499598000000006,19.1373755,720,POINT (19.137445 47.499537)
F01866,Új köztemető (Kozma utca),47.4748635,19.178176,507,POINT (19.178223 47.475097)
F01868,Tűzoltóság,47.479017999999996,19.2003055,84,POINT (19.200279 47.478982)
F01872,Kollégium,47.483903,19.1926505,89,POINT (19.192531 47.483957)
F01874,Ezüstfa utca,47.4798825,19.196049000000002,85,POINT (19.195969 47.479824)
F01880,Kamaraerdő,47.435898,18.9786425,1560,POINT (18.978596 47.435952)
F01883,Idősek Otthona,47.43758,18.979164,1561,POINT (18.979164 47.43758)
F01885,Kamaraerdei Ifjúsági Park,47.4408815,18.979417499999997,1563,POINT (18.97949 47.44116)
F01888,Repülőtér,47.444693,18.986821499999998,1571,POINT (18.986738 47.444609)
F01890,Fülőke utca,47.445385,18.991484,1570,POINT (18.991497 47.44543)
F01892,Balatoni út,47.444487499999994,19.0055385,1586,POINT (19.005406 47.444573)
F01894,Kelenvölgy-Péterhegy,47.44381675,19.0123795,1585,POINT (19.012407 47.443568)
F01898,Kápolna út,47.44689150000001,19.0139895,1584,POINT (19.013771 47.446617)
F01900,Olajfa utca,47.4494705,19.015363,1401,POINT (19.015542 47.449628)
F01908,Repülőgépes Szolgálat,47.4475355,18.9774405,1559,POINT (18.978064 47.447338)
F01915,Alabástrom utca,47.451643,19.017994,1403,POINT (19.017994 47.451643)
F01916,Őrmezei út,47.454972,19.018748,1404,POINT (19.018841 47.454972)
F01920,Menyecske utca,47.4600085,19.017325999999997,1418,POINT (19.017273 47.459766)
F01922,Kérő utca,47.461987,19.0160915,1419,POINT (19.015866 47.461924)
F01928,Nagyszeben út,47.464794,19.011477,1409,POINT (19.011477 47.464794)
F01929,Jégvirág utca,47.46223,19.008853,1341,POINT (19.008853 47.46223)
F01932,Poprádi út,47.4612685,18.999318000000002,1566,POINT (18.999172 47.461354)
F01934,Keserűvíz-forrás,47.458403,18.9971195,1567,POINT (18.997345 47.458538)
F01936,Vitorlázó út,47.452598,18.990853,1569,POINT (18.990774 47.452427)
F01938,Torma utca,47.450325,19.0196355,1399,POINT (19.019682 47.45037)
F01940,Kecskeméti József utca,47.449183,19.02073,1400,POINT (19.02073 47.449183)
F01941,Duránci utca,47.450483000000006,19.022811,1398,POINT (19.022625 47.451036)
F01943,Narancs utca,47.4478975,19.025284999999997,1449,POINT (19.025411 47.447709)
F01945,Gépész utca,47.453154,19.0223855,1407,POINT (19.021537 47.45332)
F01960,Bornemissza tér,47.4583455,19.033450000000002,1430,POINT (19.033576 47.458413)
F01964,Csurgói út,47.454567999999995,19.0333385,1455,POINT (19.033232 47.455157)
F01966,Nyírbátor utca,47.4498505,19.03328,1452,POINT (19.033194 47.450156)
F01968,Fonyód utca / Sáfrány utca,47.44422,19.0337655,1444,POINT (19.033646 47.444535)
F01972,Vegyész utca,47.4427865,19.045473,1460,POINT (19.045261 47.442548)
F01974,Építész utca,47.447548999999995,19.046128500000002,1459,POINT (19.046334 47.448017)
F01976,Kondorosi út,47.449303,19.0490855,1458,POINT (19.049052 47.449438)
F01980,Galvani utca,47.4553905,19.051783999999998,1432,POINT (19.051598 47.455407)
F01984,Budafoki út / Dombóvári út,47.468595,19.052979,1355,POINT (19.052979 47.468595)
F01986,Budafoki út / Szerémi sor,47.4739306,19.0530508,1373,POINT (19.052621 47.474361)
F01991,Budafoki út / Szerémi sor,47.472823,19.052568,1374,POINT (19.052568 47.472823)
F02003,Hauszmann Alajos utca,47.467192,19.043926,1323,POINT (19.043919 47.467039)
F02006,Etele út / Fehérvári út,47.462695,19.040922,1437,POINT (19.040922 47.462695)
F02013,Andor utca,47.455922,19.039862499999998,1440,POINT (19.039889 47.456129)
F02016,Albertfalva kitérő,47.452419,19.038597,1457,POINT (19.038418 47.452172)
F02019,Albertfalva utca,47.4476705,19.037516250000003,1454,POINT (19.037555 47.448058)
F02024,Fonyód utca,47.44366325,19.03685575,1443,POINT (19.03688 47.44392)
F02028,Budafok kocsiszín,47.441292,19.03646725,1445,POINT (19.036498 47.44083)
F02032,Tétényi út 30.,47.466346,19.0340115,1422,POINT (19.034157 47.466355)
F02034,Szent Imre Kórház,47.469422,19.033719,1324,POINT (19.033719 47.469422)
F02035,Szent Imre Kórház,47.468064,19.033839,1325,POINT (19.033839 47.468064)
F02038,Szent Gellért-templom,47.468593,19.023923,1320,POINT (19.023744 47.468566)
F02040,Csóka utca,47.470774500000005,19.02889,1319,POINT (19.029195 47.470851)
F02044,Karolina út,47.471473,19.033466,1328,POINT (19.033466 47.471473)
F02046,Karolina út,47.472767000000005,19.0334385,1327,POINT (19.033676 47.472838)
F02048,Karolina út,47.473371,19.035389,1326,POINT (19.035389 47.473371)
F02051,Ajnácskő utca,47.4744075,19.024909,1315,POINT (19.025042 47.47434)
F02053,Dayka Gábor utca,47.470521500000004,19.01987,1318,POINT (19.019684 47.470616)
F02055,Nagyszeben tér,47.466456,19.005440999999998,1338,POINT (19.005401 47.466609)
F02057,Frankhegy utca,47.4708565,19.0012455,1334,POINT (19.001312 47.470681)
F02059,Kaptárkő utca,47.4722005,18.99891,1335,POINT (18.999401 47.471841)
F02061,Regős utca,47.465095000000005,19.0037405,1339,POINT (19.003926 47.464942)
F02063,Törökugrató utca,47.466722000000004,19.0007545,1331,POINT (19.000847 47.466614)
F02065,Szent Angyalok-templom,47.4690515,18.996412499999998,1333,POINT (18.996592 47.468863)
F02067,Tűzkő utca,47.4703305,18.994761500000003,1332,POINT (18.994848 47.470155)
F02071,Telekes utca,47.473772999999994,18.9960035,1342,POINT (18.996136 47.473611)
F02073,Szent Pio atya tér,47.474773,18.989449,1345,POINT (18.989847 47.47458)
F02075,Irhás árok,47.476629,18.9874105,1344,POINT (18.987351 47.47653)
F02077,Oltvány köz,47.478142,18.9909975,1346,POINT (18.99113 47.478133)
F02079,Eper utca,47.480742,18.992613499999997,1347,POINT (18.992547 47.480589)
F02081,Márton Áron tér,47.4817934,18.998834800000004,1238,POINT (18.998171 47.481887)
F02086,Zajzon utca,47.479608,19.0009265,1352,POINT (19.000721 47.479837)
F02088,Tömös utca,47.477738,19.002560000000003,1351,POINT (19.002354 47.477895)
F02090,Nagyszalonta köz,47.475381999999996,19.004127500000003,1348,POINT (19.004373 47.475252)
F02092,Bereck utca,47.4734545,19.0078765,1349,POINT (19.008248 47.473104)
F02094,Sümegvár utca,47.4695075,19.013053,1337,POINT (19.012708 47.469885)
F02096,Süveg utca,47.4813185,19.004746,1350,POINT (19.004766 47.48135)
F02100,Farkasréti temető,47.483909249999996,19.005782000000004,1229,POINT (19.005374 47.483923)
F02104,Hegytető utca,47.484536000000006,19.0095795,1231,POINT (19.009288 47.484428)
F02106,Sion lépcső,47.4852975,19.016452,1276,POINT (19.015961 47.485203)
F02108,Breznó lépcső,47.4839855,19.0208245,1291,POINT (19.020632 47.484179)
F02110,Zólyomi út,47.483343,19.0228415,1290,POINT (19.022835 47.483244)
F02112,BAH-csomópont,47.486967666666665,19.02399716666667,1288,POINT (19.023152 47.486761)
F02113,Fehérló utca,47.4782125,19.025557499999998,1292,POINT (19.025717 47.478154)
F02115,Alsóhegy utca,47.48246449999999,19.030164,1294,POINT (19.03009 47.482941)
F02121,Diószegi út (Vérellátó Szolgálat),47.478524,19.031640000000003,1310,POINT (19.031832 47.478443)
F02123,Vincellér utca,47.476473999999996,19.035826,1311,POINT (19.03572 47.476663)
F02126,Szüret utca,47.480245,19.036676,1314,POINT (19.036129 47.480283)
F02130,Iglói utca,47.483408999999995,19.040137,1305,POINT (19.039739 47.483526)
F02132,Balogh Tihamér utca,47.4818755,19.042943,1308,POINT (19.042897 47.481853)
F02134,Kelenhegyi lépcső,47.4816145,19.045265,1307,POINT (19.045152 47.481241)
F02136,Rezeda utca,47.483337,19.043506999999998,1309,POINT (19.043467 47.483418)
F02148,Gárdonyi tér,47.480256499999996,19.05168,1366,POINT (19.051428 47.479991)
F02152,Budafoki út / Karinthy Frigyes út,47.4765205,19.0529825,1372,POINT (19.053383 47.476872)
F02153,Budafoki út / Karinthy Frigyes út,47.47575466666667,19.053576333333336,1371,POINT (19.054107 47.475827)
F02159,Szép utca,47.430974500000005,18.98012,1575,POINT (18.980034 47.431123)
F02161,Dűlő út,47.42748,18.979621,1576,POINT (18.979257 47.427282)
F02165,BAH-csomópont,47.488006999999996,19.024949,1287,POINT (19.024345 47.488299)
F02170,Budaörsi út / Villányi út,47.4838582,19.0267658,1289,POINT (19.027041 47.4841)
F02180,Kosztolányi Dezső tér,47.474864,19.042062,1296,POINT (19.042062 47.474864)
F02181,Kosztolányi Dezső tér,47.475275,19.039837333333335,1295,POINT (19.039382 47.47499)
F02211,Herend utca,47.4469615,19.033472500000002,1453,POINT (19.033354 47.447251)
F02213,Puskás Tivadar utca,47.4604085,19.033515,1429,POINT (19.033388 47.46038)
F02217,Rupphegyi út,47.463113500000006,18.9846745,1564,POINT (18.985059 47.463163)
F02232,Örsöddűlő,47.455019,18.993171,1568,POINT (18.993158 47.45492)
F02234,Kelenföldi Erőmű,47.464453500000005,19.0529455,1353,POINT (19.052793 47.464485)
F02236,Hengermalom út,47.4593315,19.0522845,1436,POINT (19.052095 47.459233)
F02238,Csonka János tér,47.470021,19.044953999999997,1322,POINT (19.044821 47.469783)
F02240,Kalotaszeg utca,47.4590025,19.040989500000002,1439,POINT (19.041003 47.459178)
F02242,Regős köz,47.468402499999996,19.003397,1329,POINT (19.003437 47.468218)
F02244,Torbágy utca,47.46789,18.9986045,1330,POINT (18.998644 47.467809)
F02246,Előpatak utca,47.471301,19.010742999999998,1336,POINT (19.010544 47.471521)
F02252,Pető Intézet (Villányi út),47.481761500000005,19.0327655,1293,POINT (19.032616 47.481864)
F02254,Ménesi út,47.481682,19.0382,1313,POINT (19.038107 47.481529)
F02259,Hengermalom út / Szerémi út,47.4618445,19.046784000000002,1434,POINT (19.047128 47.461938)
F02261,Hollókő utca,47.4754975,19.0301155,1316,POINT (19.02983 47.47534)
F02264,Állvány utca,47.445429000000004,19.028336,1448,POINT (19.028449 47.445272)
F02266,Madárhegy,47.4620345,18.9935415,1565,POINT (18.993097 47.462178)
F02270,KFKI étterem,47.489261,18.959079,2151,POINT (18.958834 47.489157)
F02272,Magas út,47.490391,18.961054,2150,POINT (18.961127 47.490373)
F02274,Mindszenty József bíboros tér,47.487243,18.989793,1237,POINT (18.989793 47.487243)
F02275,Hó utca,47.486453,18.992196,1236,POINT (18.992156 47.486417)
F02277,Hajnalka utca,47.485141,18.9940945,1239,POINT (18.994161 47.485024)
F02279,Tamási Áron utca,47.493599,19.002513,1218,POINT (19.002553 47.493446)
F02281,Mártonhegyi út,47.490406,19.002230500000003,1235,POINT (19.002303 47.490631)
F02283,Kempelen Farkas utca,47.487978,19.004050499999998,1234,POINT (19.003938 47.488014)
F02285,Boldog Teréz anya tér,47.488892500000006,19.006935499999997,1233,POINT (19.00679 47.488582)
F02287,Bürök utca,47.491330500000004,19.009694,1280,POINT (19.009429 47.491236)
F02289,Szendi árok,47.49069466666666,19.011919333333335,1281,POINT (19.011724 47.491444)
F02290,Németvölgyi út,47.492999999999995,19.0120615,1279,POINT (19.012188 47.492487)
F02292,Apor Vilmos tér,47.490919999999996,19.01414433333333,1278,POINT (19.014087 47.491022)
F02296,Vas Gereben utca,47.4891995,19.009649,1232,POINT (19.009536 47.489078)
F02300,Apor Vilmos tér,47.490451,19.0150625,1277,POINT (19.014857 47.4905)
F02309,Nagy Jenő utca,47.492148,19.019086,1274,POINT (19.019086 47.492148)
F02310,Tartsay Vilmos utca,47.492365,19.024085,1270,POINT (19.023906 47.492329)
F02313,"Széchenyi-hegy, Gyermekvasút",47.495117,18.9795,2156,POINT (18.9795 47.495117)
F02314,Művész út,47.496221,18.9840305,2154,POINT (18.983838 47.496198)
F02316,Svábhegy,47.497690999999996,18.9895562,2153,POINT (18.989331 47.497398)
F02318,Városkút,47.500221999999994,18.989507,2152,POINT (18.989408 47.500096)
F02320,Adonis utca,47.503271,18.990077499999998,2139,POINT (18.989736 47.503118)
F02322,Erdei iskola,47.507276000000005,18.994602999999998,2138,POINT (18.994364 47.507204)
F02324,Esze Tamás iskola,47.507200999999995,18.998101,2146,POINT (18.997935 47.507304)
F02326,Orgonás,47.506659,19.002833,2145,POINT (19.002501 47.506713)
F02328,Szent János Kórház,47.508539,19.008810399999998,2008,POINT (19.008248 47.508145)
F02337,Barabás Villa,47.50501,19.018733,1258,POINT (19.018826 47.504902)
F02339,Temes utca,47.506767499999995,19.015135,1257,POINT (19.015122 47.506826)
F02344,Rőzse köz,47.508234,19.003804000000002,2144,POINT (19.003492 47.508315)
F02346,Józsa Béla köz,47.5092355,18.999727,2147,POINT (18.99984 47.509141)
F02348,Pető Intézet,47.5120225,19.003750500000002,2128,POINT (19.003999 47.511961)
F02350,Virányos út,47.512604499999995,19.0006205,2135,POINT (19.000156 47.512586)
F02352,Moholy-Nagy Művészeti Egyetem,47.5165515,18.9901325,2000,POINT (18.990066 47.516628)
F02355,Fészek utca,47.511784500000005,18.997229,2131,POINT (18.997249 47.511829)
F02357,"Kútvölgyi lejtő, Traumatológia",47.511367500000006,19.0007275,2134,POINT (19.000608 47.511417)
F02359,Zirzen Janka utca,47.51136,18.992669,2130,POINT (18.992669 47.51136)
F02360,György Aladár utca,47.5114885,18.989621999999997,2112,POINT (18.989841 47.511457)
F02362,Kiss Áron utca,47.512878,18.989733,2113,POINT (18.989733 47.512878)
F02364,Orvosi rendelő,47.4835095,18.9960405,1240,POINT (18.99622 47.483316)
F02366,Hadik András utca,47.5097575,18.993638,2129,POINT (18.994596 47.509849)
F02370,Felső Svábhegyi út,47.508326999999994,18.9903025,2141,POINT (18.990614 47.508525)
F02374,Galgóczy utca,47.511593500000004,18.986447499999997,2115,POINT (18.986952 47.511814)
F02376,Zalai út,47.5115715,18.9844175,2114,POINT (18.984889 47.511536)
F02378,Béla király út,47.5104095,18.975474499999997,2110,POINT (18.975876 47.510424)
F02380,Fácános tér,47.511005,18.972058,2111,POINT (18.972058 47.511005)
F02383,Lóvasút,47.5169505,18.980241,2119,POINT (18.980719 47.517108)
F02389,Istenhegyi lejtő,47.505525500000005,18.992607,2137,POINT (18.99268 47.505566)
F02391,Óra út,47.504583499999995,18.997984000000002,2136,POINT (18.997964 47.504642)
F02393,Nógrádi utca,47.503047499999994,19.002550999999997,2143,POINT (19.002916 47.503178)
F02395,Pethényi út,47.502554,19.0058765,2142,POINT (19.00585 47.502828)
F02397,Szent Orbán tér,47.499538,19.009907,1227,POINT (19.009608 47.499646)
F02399,Szent Orbán tér,47.499301,19.00864866666667,1228,POINT (19.009011 47.499223)
F02403,Tóth Lőrinc utca,47.499657,19.017611,1245,POINT (19.017611 47.499657)
F02404,Goldmark Károly utca,47.501797,19.015553,1255,POINT (19.015553 47.501797)
F02405,Határőr út,47.503497,19.016043,1256,POINT (19.016043 47.503497)
F02406,Ráth György utca,47.500027,19.020717,1247,POINT (19.020717 47.500027)
F02415,Márvány utca,47.494621,19.020478,1251,POINT (19.020478 47.494621)
F02422,Agárdi út,47.495169,19.015235,1225,POINT (19.015235 47.495169)
F02423,Galántai utca,47.4972415,19.013708,1224,POINT (19.014146 47.497192)
F02425,Nárcisz utca,47.496035,19.0109115,1223,POINT (19.011071 47.495806)
F02427,Tarpatak utca,47.5095045,18.997324,2148,POINT (18.99749 47.509581)
F02429,Vöröskő utca,47.4967985,19.007354,1226,POINT (19.007367 47.496929)
F02435,Sólyom utca,47.497061,19.000037,1220,POINT (19.000117 47.49698)
F02437,Tamási Áron utca / Thomán István utca,47.4969435,18.998146,1221,POINT (18.998126 47.497159)
F02439,Thomán István utca,47.494641,18.998513,1222,POINT (18.998513 47.494641)
F02443,Ordas út,47.49836,18.9809685,2155,POINT (18.98057 47.49849)
F02445,Őzike köz,47.4994815,18.9768265,2157,POINT (18.976428 47.49954)
F02447,Fülemile út,47.499596,18.9729905,2159,POINT (18.972592 47.499645)
F02449,"Normafa, Gyermekvasút",47.500274000000005,18.970746499999997,2158,POINT (18.970653 47.500391)
F02451,Csillagvizsgáló,47.500225,18.964741,2163,POINT (18.964734 47.500315)
F02453,"Csillebérc, Gyermekvasút",47.497715,18.964015,2162,POINT (18.963955 47.497706)
F02455,Sötétvágás utca,47.4951205,18.964616,2161,POINT (18.964663 47.494864)
F02482,Rendelőintézet,47.5110725,19.005766,2127,POINT (19.00568 47.511176)
F02484,Hunyad köz,47.5113585,18.98161,2108,POINT (18.981716 47.511435)
F02486,Hunyad lejtő,47.510862,18.978869,2109,POINT (18.97865 47.510875)
F02488,Csemegi utca,47.501645,19.018128,1246,POINT (19.018128 47.501645)
F02492,Hajós Alfréd uszoda,47.5198575,19.0441675,2038,POINT (19.044234 47.519853)
F02494,Palatinus fürdő,47.527902999999995,19.0474265,270,POINT (19.047606 47.528074)
F02496,Szabadtéri Színpad,47.530417,19.048641500000002,271,POINT (19.048934 47.530844)
F02498,Szállodák (Hotels),47.5332855,19.0507665,267,POINT (19.050873 47.533317)
F02500,Zenélőkút,47.535818,19.05244,268,POINT (19.052506 47.535692)
F02502,Margitsziget / Árpád híd,47.537431999999995,19.05406,269,POINT (19.054392 47.537185)
F02504,Tisza utca,47.523999,19.058753000000003,263,POINT (19.058109 47.524161)
F02505,Parkmozi köz,47.522704000000004,19.045189,2039,POINT (19.045282 47.522785)
F02507,Viza utca,47.530412,19.057705,256,POINT (19.057645 47.530106)
F02509,Dráva utca,47.5258115,19.0578305,262,POINT (19.057817 47.525897)
F02511,Jászai Mari tér,47.51389,19.049372,321,POINT (19.049372 47.51389)
F02512,Szent István park,47.518037500000005,19.0520405,326,POINT (19.051456 47.518335)
F02514,Victor Hugo utca,47.517478499999996,19.0547885,309,POINT (19.054762 47.517793)
F02516,Victor Hugo utca,47.518347500000004,19.0562955,310,POINT (19.056767 47.518468)
F02521,Ipoly utca,47.520208499999995,19.053978999999998,312,POINT (19.054072 47.520564)
F02523,Radnóti Miklós utca,47.515091,19.053659500000002,324,POINT (19.053195 47.515644)
F02525,Népfürdő utca / Árpád híd,47.5361545,19.059376,266,POINT (19.059466 47.536348)
F02532,Kámfor utca,47.552357,19.083827499999998,207,POINT (19.084485 47.552433)
F02538,Gyöngyösi utca,47.548029,19.080930000000002,208,POINT (19.080524 47.547613)
F02540,Cziffra György park,47.5485265,19.078545,209,POINT (19.077788 47.548729)
F02542,Gyöngyösi utca,47.546347000000004,19.0892835,213,POINT (19.089251 47.547062)
